Se.59,240819,,,A*6E
$GPVTG,196.59,T,,M,0.00,N,0.01,K,A*3E
21,04,269,16*4D
$GPRMC,055936.000,A,1254.6228,N,07737.8495,E,0.00,196.59,240819,,,A*6E
$GPVTG,196.59,T,,M,0.00,N,0.01,K,A*3E
21,04,269,16*4D
$GPRMC,055936.000,A,1254.6228,N,07737.8495,E,0.00,196.59,240819,,,A*6E
$GPVTG,196.59,T,,M,0.00,N,0.01,K,A*3E
Setup Complete!
$GPGGA,055938.000,1254.6228,N,07737.8495,E,1,9,0.88,888.6,M,-88$GPGGA,055939.000,1254.6228,N,07737.8495,E,1,9,0.88,888.6,M,-88.5,M,,*78
$GPGLL,1254.6228,N,07737.8495,E,055939.000,A,A*52
$GPGSA,A,3,19,12,24,02,15,05,13,25,29,,,,1.61,0.88,1.35*03
 $GPGSV,3,1,11,12,73,225,28,05,63,031,32,25,45,304,28,02,29,028,27*7D
$GPGSV,3,2,11,193GPGLL,28,058,25,13,25,134,37,15,24,176,36,29,18,328,35*4E
$GPGSV,3,3,11,24,14,204,27,19,10,108,18,21,04,269,16*4D
$GPRMC,055939.000,A,1254.6228,N,07737.8495,E,0.02,95.94,240819,,,A*50
$GPVTG,95.94,T,,M,0.02,N,0.04,K,A*0A
$GPGGA,055940.000,1254.6228,N,07737.8495,E,1,9,0.88,888.6,M,-88.5,M,,*76
$GPGLL,1254.6228,N,07737.8495,E,055940.000,A,A*5C
$GPGSA,A,3,19,12,24,02,15,05,13,25,29,,,,1.61,0.88,1.35*03
$GPGSV,3,1,11,12,73,225,28,05,63,031,32,25,45,304,28,02,29,028,27*7D
$GPGSV,3,2,11,193,28,058,25,13,25,134,37,15,24,176,36,29,18,328,34*4F
$GPGSV,3,3,11,24,14,204,27,19,10,108,18,21,04,269,16*4D
$GPRMC,055940.000,A,1254.6228,N,07737.8495,E,0.03,59.16,240819,,,A*55
$GPVTG,59.16,T,,M,0.03,N,0.06,K,A*03
$GPGGA,055941.000,1254.6228,N,07737.8495,E,1,9,0.88,888.6,M,-88.5,M,,*77
$GPGLL,1254.6228,N,07737.8495,E,055941.000,A,A*5D
$GPGSA,A,3,19,12,24,02,15,05,13,25,29,,,,1.61,0.88,1.35*03
$GPGSV,3,1,11,12,73,225,28,05,63,031,32,25,45,304,28,02,29,028,27*7D
$GPGSV,3,2,11,193,28,058,25,13,25,134,37,15,24,176,36,29,18,328,34*4F
$GPGSV,3,3,11,24,14,204,28,19,10,108,18,21,04,269,16*42
$GPRMC,055941.000,A,1254.6228,N,07737.8495,E,0.03,38.89,240819,,,A*55
$GPVTG,38.89,T,,M,0.03,N,0.05,K,A*01
$GPGGA,055942.000,1254.6228,N,07737.8495,E,1,9,0.88,888.6,M,-88.5,M,,*74
$GPGLL,1254.6228,N,07737.8495,E,055942.000,A,A*5E
$GPGSA,A,3,19,12,24,02,15,05,13,25,29,,,,1.61,0.88,1.35*03
$GPGSV,3,1,11,12,73,225,27,05,63,031,32,25,45,304,28,02,29,028,27*72
$GPGSV,3,2,11,193,28,058,25,13,25,134,37,15,24,176,36,29,18,328,34*4F
$GPGSV,3,3,11,24,14,204,28,19,10,108,18,21,04,269,16*42
$GPRMC,055942.000,A,1254.6228,N,07737.8495,E,0.03,47.12,240819,,,A*5C
$GPVTG,47.12,T,,M,0.03,N,0.05,K,A*0B
$GPGGA,055943.000,1254.6228,N,07737.8495,E,1,9,0.88,888.6,M,-88.5,M,,*75
$GPGLL,1254.6228,N,07737.8495,E,055943.000,A,A*5F
$GPGSA,A,3,19,12,24,02,15,05,13,25,29,,,,1.61,0.88,1.35*03
$GPGSV,3,1,11,12,73,225,26,05,63,031,32,25,45,304,28,02,29,028,27*73
$GPGSV,3,2,11,193,28,058,25,13,25,134,37,15,24,176,36,29,18,328,34*4F
$GPGSV,3,3,11,24,14,204,28,19,10,108,18,21,04,269,16*42
$GPRMC,055943.000,A,1254.6228,N,07737.8495,E,0.05,55.30,240819,,,A*58
$GPVTG,55.30,T,,M,0.05,N,0.08,K,A*03
$GPGGA,055944.000,1254.6228,N,07737.8495,E,1,9,0.88,888.6,M,-88.5,M,,*72
$GPGLL,1254.6228,N,07737.8495,E,055944.000,A,A*58
$GPGSA,A,3,19,12,24,02,15,05,13,25,29,,,,1.61,0.88,1.35*03
$GPGSV,3,1,11,12,73,225,26,05,63,031,32,25,45,304,28,02,29,029,27*72
$GPGSV,3,2,11,193,28,058,25,13,25,134,36,15,24,176,36,29,18,328,34*4E
$GPGSV,3,3,11,24,14,204,28,19,10,108,18,21,04,269,16*42
$GPRMC,055944.000,A,1254.6228,N,07737.8495,E,0.05,40.88,240819,,,A*58
$GPVTG,40.88,T,,M,0.05,N,0.08,K,A*04
$GPGGA,055945.000,1254.6228,N,07737.8496,E,1,9,0.88,888.6,M,-88.5,M,,*70
$GPGLL,1254.6228,N,07737.8496,E,055945.000,A,A*5A
$GPGSA,A,3,19,12,24,02,15,05,13,25,29,,,,1.61,0.88,1.35*03
$GPGSV,3,1,11,12,73,225,26,05,63,031,33,25,45,304,28,02,29,029,27*73
$GPGSV,3,2,11,193,28,058,25,13,25,134,36,15,24,176,36,29,18,328,34*4E
$GPGSV,3,3,11,24,14,204,28,19,10,108,18,21,04,269,16*42
$GPRMC,055945.000,A,1254.6228,N,07737.8496,E,0.02,70.27,240819,,,A*5B
$GPVTG,70.27,T,,M,0.02,N,0.04,K,A*09
$GPGGA,055946.000,1254.6228,N,07737.8496,E,1,9,0.88,888.6,M,-88.5,M,,*73
$GPGLL,1254.6228,N,07737.8496,E,055946.000,A,A*59
$GPGSA,A,3,19,12,24,02,15,05,13,25,29,,,,1.61,0.88,1.35*03
$GPGSV,3,1,11,12,73,225,26,05,63,031,33,25,45,304,28,02,29,029,27*73
$GPGSV,3,2,11,193,28,058,25,13,25,134,36,15,24,176,36,29,18,328,34*4E
$GPGSV,3,3,11,24,14,204,28,19,10,108,18,21,04,269,16*42
$GPRMC,055946.000,A,1254.6228,N,07737.8496,E,0.04,56.51,240819,,,A*5B
$GPVTG,56.51,T,,M,0.04,N,0.07,K,A*09
$GPGGA,055947.000,1254.6229,N,07737.8497,E,1,9,0.88,888.6,M,-88.5,M,,*72
$GPGLL,1254.6229,N,07737.8497,E,055947.000,A,A*58
$GPGSA,A,3,19,12,24,02,15,05,13,25,29,,,,1.61,0.88,1.35*03
$GPGSV,3,1,11,12,73,225,25,05,62,031,33,25,45,304,28,02,29,029,28*7E
$GPGSV,3,2,11,193,28,058,25,13,25,134,36,15,24,176,36,29,18,328,34*4E
$GPGSV,3,3,11,24,14,204,29,19,10,108,18,21,04,269,16*43
$GPRMC,055947.000,A,1254.6229,N,07737.8497,E,0.02,44.62,240819,,,A*5F
$GPVTG,44.62,T,,M,0.02,N,0.05,K,A*0E
$GPGGA,055948.000,1254.6229,N,07737.8498,E,1,9,0.88,888.7,M,-88.5,M,,*73
$GPGLL,1254.6229,N,07737.8498,E,055948.000,A,A*58
$GPGSA,A,3,19,12,24,02,15,05,13,25,29,,,,1.61,0.88,1.35*03
$GPGSV,3,1,11,12,73,225,25,05,62,031,33,25,45,304,28,02,29,029,28*7E
$GPGSV,3,2,11,193,28,058,25,13,25,134,36,15,24,176,36,29,18,328,34*4E
$GPGSV,3,3,11,24,14,204,29,19,10,108,18,21,04,269,16*43
$GPRMC,055948.000,A,1254.6229,N,07737.8498,E,0.01,34.57,240819,,,A*5D
$GPVTG,34.57,T,,M,0.01,N,0.01,K,A*08
$GPGGA,055949.000,1254.6230,N,07737.8501,E,1,9,0.88,888.7,M,-88.5,M,,*7B
$GPGLL,1254.6230,N,07737.8501,E,055949.000,A,A*50
$GPGSA,A,3,19,12,24,02,15,05,13,25,29,,,,1.61,0.88,1.35*03
$GPGSV,3,1,11,12,73,225,25,05,62,031,33,25,45,304,28,02,29,029,28*7E
$GPGSV,3,2,11,193,28,058,24,13,25,134,36,15,24,176,36,29,18,328,34*4F
$GPGSV,3,3,11,24,14,204,29,19,10,108,17,21,04,269,16*4C
$GPRMC,055949.000,A,1254.6230,N,07737.8501,E,0.05,78.04,240819,,,A*5F
$GPVTG,78.04,T,,M,0.05,N,0.10,K,A*02
$GPGGA,055950.000,1254.6231,N,07737.8502,E,1,9,0.88,888.7,M,-88.5,M,,*71
$GPGLL,1254.6231,N,07737.8502,E,055950.000,A,A*5A
$GPGSA,A,3,19,12,24,02,15,05,13,25,29,,,,1.61,0.88,1.35*03
$GPGSV,3,1,11,12,73,225,25,05,62,031,33,25,45,304,28,02,29,029,27*71
$GPGSV,3,2,11,193,28,058,24,13,25,134,36,15,24,176,35,29,18,328,33*4B
$GPGSV,3,3,11,24,14,204,29,19,10,108,17,21,04,269,16*4C
$GPRMC,055950.000,A,1254.6231,N,07737.8502,E,0.03,63.36,240819,,,A*58
$GPVTG,63.36,T,,M,0.03,N,0.06,K,A*08
$GPGGA,055951.000,1254.6231,N,07737.8502,E,1,9,0.88,888.7,M,-88.5,M,,*70
$GPGLL,1254.6231,N,07737.8502,E,055951.000,A,A*5B
$GPGSA,A,3,19,12,24,02,15,05,13,25,29,,,,1.61,0.88,1.35*03
$GPGSV,3,1,11,12,73,225,25,05,62,031,33,25,45,304,28,02,29,029,27*71
$GPGSV,3,2,11,193,28,058,24,13,25,134,36,15,24,176,35,29,18,328,33*4B
$GPGSV,3,3,11,24,14,204,29,19,10,108,17,21,04,269,16*4C
$GPRMC,055951.000,A,1254.6231,N,07737.8502,E,0.02,98.40,240819,,,A*5D
$GPVTG,98.40,T,,M,0.02,N,0.04,K,A*0E
$GPGGA,055952.000,1254.6231,N,07737.8502,E,1,9,0.88,888.7,M,-88.5,M,,*73
$GPGLL,1254.6231,N,07737.8502,E,055952.000,A,A*58
$GPGSA,A,3,19,12,24,02,15,05,13,25,29,,,,1.61,0.88,1.35*03
$GPGSV,3,1,11,12,73,225,25,05,62,031,33,25,45,304,28,02,29,029,27*71
$GPGSV,3,2,11,193,28,058,24,13,25,134,36,15,24,176,34,29,18,328,33*4A
$GPGSV,3,3,11,24,14,204,29,19,10,108,16,21,04,269,16*4D
$GPRMC,055952.000,A,1254.6231,N,07737.8502,E,0.02,82.51,240819,,,A*55
$GPVTG,82.51,T,,M,0.02,N,0.03,K,A*02
$GPGGA,055953.000,1254.6231,N,07737.8502,E,1,9,0.88,888.7,M,-88.5,M,,*72
$GPGLL,1254.6231,N,07737.8502,E,055953.000,A,A*59
$GPGSA,A,3,19,12,24,02,15,05,13,25,29,,,,1.61,0.88,1.35*03
$GPGSV,3,1,11,12,73,225,24,05,62,031,33,25,45,304,28,02,29,029,27*70
$GPGSV,3,2,11,193,28,058,24,13,25,134,36,15,24,176,34,29,18,328,33*4A
$GPGSV,3,3,11,24,14,204,29,19,10,108,13,21,04,269,17*49
$GPRMC,055953.000,A,1254.6231,N,07737.8502,E,0.00,129.82,240819,,,A*68
$GPVTG,129.82,T,,M,0.00,N,0.01,K,A*3C
$GPGGA,055954.000,1254.6231,N,07737.8502,E,1,9,0.88,888.7,M,-88.5,M,,*75
$GPGLL,1254.6231,N,07737.8502,E,055954.000,A,A*5E
$GPGSA,A,3,19,12,24,02,15,05,13,25,29,,,,1.61,0.88,1.35*03
$GPGSV,3,1,11,12,72,224,23,05,62,031,33,25,45,304,29,02,29,029,27*76
$GPGSV,3,2,11,193,28,058,24,13,25,134,36,15,24,176,34,29,18,328,33*4A
$GPGSV,3,3,11,24,14,204,29,19,10,108,14,21,04,269,17*4E
$GPRMC,055954.000,A,1254.6231,N,07737.8502,E,0.03,49.51,240819,,,A*55
$GPVTG,49.51,T,,M,0.03,N,0.05,K,A*02
$GPGGA,055955.000,1254.6231,N,07737.8502,E,1,9,0.88,888.7,M,-88.5,M,,*74
$GPGLL,1254.6231,N,07737.8502,E,055955.000,A,A*5F
$GPGSA,A,3,19,12,24,02,15,05,13,25,29,,,,1.61,0.88,1.35*03
$GPGSV,3,1,11,12,72,224,23,05,62,031,33,25,45,304,29,02,29,029,27*76
$GPGSV,3,2,11,193,28,058,24,13,25,134,36,15,24,176,34,29,18,328,33*4A
$GPGSV,3,3,11,24,14,204,29,19,10,108,14,21,04,269,17*4E
$GPRMC,055955.000,A,1254.6231,N,07737.8502,E,0.04,58.65,240819,,,A*54
$GPVTG,58.65,T,,M,0.04,N,0.08,K,A*0F
$GPGGA,055956.000,1254.6231,N,07737.8502,E,1,9,0.88,888.7,M,-88.5,M,,*77
$GPGLL,1254.6231,N,07737.8502,E,055956.000,A,A*5C
$GPGSA,A,3,19,12,24,02,15,05,13,25,29,,,,1.61,0.88,1.35*03
$GPGSV,3,1,11,12,72,224,22,05,62,031,33,25,45,304,29,02,29,029,27*77
$GPGSV,3,2,11,193,28,058,24,13,25,134,36,15,24,176,33,29,18,328,33*4D
$GPGSV,3,3,11,24,14,204,29,19,10,108,11,21,04,269,17*4B
$GPRMC,055956.000,A,1254.6231,N,07737.8502,E,0.03,83.16,240819,,,A*52
$GPVTG,83.16,T,,M,0.03,N,0.05,K,A*07
$GPGGA,055957.000,1254.6231,N,07737.8503,E,1,9,0.88,888.6,M,-88.5,M,,*76
$GPGLL,1254.6231,N,07737.8503,E,055957.000,A,A*5C
$GPGSA,A,3,19,12,24,02,15,05,13,25,29,,,,1.61,0.88,1.35*03
$GPGSV,3,1,11,12,72,224,21,05,62,031,33,25,45,304,29,02,29,029,28*7B
$GPGSV,3,2,11,193,28,058,24,13,25,134,36,15,24,176,33,29,18,328,33*4D
$GPGSV,3,3,11,24,14,204,29,19,10,108,10,21,04,269,17*4A
$GPRMC,055957.000,A,1254.6231,N,07737.8503,E,0.02,92.75,240819,,,A*56
$GPVTG,92.75,T,,M,0.02,N,0.04,K,A*02
$GPGGA,055958.000,1254.6231,N,07737.8504,E,1,9,0.88,888.5,M,-88.5,M,,*7D
$GPGLL,1254.6231,N,07737.8504,E,055958.000,A,A*54
$GPGSA,A,3,19,12,24,02,15,05,13,25,29,,,,1.62,0.88,1.35*00
$GPGSV,3,1,11,12,72,224,21,05,62,031,33,25,45,304,29,02,29,029,29*7A
$GPGSV,3,2,11,193,28,058,24,13,25,134,36,15,24,176,32,29,18,328,32*4D
$GPGSV,3,3,11,24,14,204,29,19,10,108,12,21,04,269,17*48
$GPRMC,055958.000,A,1254.6231,N,07737.8504,E,0.02,58.58,240819,,,A*57
$GPVTG,58.58,T,,M,0.02,N,0.03,K,A*0C
$GPGGA,055959.000,1254.6231,N,07737.8505,E,1,9,0.88,888.5,M,-88.5,M,,*7D
$GPGLL,1254.6231,N,07737.8505,E,055959.000,A,A*54
$GPGSA,A,3,19,12,24,02,15,05,13,25,29,,,,1.61,0.88,1.35*03
$GPGSV,3,1,11,12,72,224,21,05,62,031,33,25,45,304,29,02,29,029,29*7A
$GPGSV,3,2,11,193,28,058,24,13,25,134,36,15,24,176,32,29,18,328,32*4D
$GPGSV,3,3,11,24,14,204,29,19,10,108,13,21,04,269,17*49
$GPRMC,055959.000,A,1254.6231,N,07737.8505,E,0.01,55.21,240819,,,A*57
$GPVTG,55.21,T,,M,0.01,N,0.02,K,A*0D
$GPGGA,060000.000,1254.6231,N,07737.8505,E,1,9,0.88,888.4,M,-88.5,M,,*7F
$GPGLL,1254.6231,N,07737.8505,E,060000.000,A,A*57
$GPGSA,A,3,19,12,24,02,15,05,13,25,29,,,,1.61,0.88,1.35*03
$GPGSV,3,1,11,12,72,224,21,05,62,031,33,25,45,304,30,02,29,029,30*7A
$GPGSV,3,2,11,193,28,058,24,13,25,134,36,15,24,176,32,29,18,328,31*4E
$GPGSV,3,3,11,24,14,204,29,19,10,108,13,21,04,269,17*49
$GPRMC,060000.000,A,1254.6231,N,07737.8505,E,0.01,246.24,240819,,,A*61
$GPVTG,246.24,T,,M,0.01,N,0.02,K,A*38
$GPGGA,060001.000,1254.6232,N,07737.8506,E,1,9,0.88,888.4,M,-88.5,M,,*7E
$GPGLL,1254.6232,N,07737.8506,E,060001.000,A,A*56
$GPGSA,A,3,19,12,24,02,15,05,13,25,29,,,,1.62,0.88,1.35*00
$GPGSV,3,1,11,12,72,224,21,05,62,031,33,25,45,304,30,02,29,029,30*7A
$GPGSV,3,2,11,193,28,058,24,13,25,134,36,15,24,176,32,29,18,328,31*4E
$GPGSV,3,3,11,24,14,204,29,19,10,109,11,21,04,269,17*4A
$GPRMC,060001.000,A,1254.6232,N,07737.8506,E,0.03,62.49,240819,,,A*5D
$GPVTG,62.49,T,,M,0.03,N,0.06,K,A*01
$GPGGA,060002.000,1254.6232,N,07737.8507,E,1,9,0.88,888.3,M,-88.5,M,,*7B
$GPGLL,1254.6232,N,07737.8507,E,060002.000,A,A*54
$GPGSA,A,3,19,12,24,02,15,05,13,25,29,,,,1.62,0.88,1.35*00
$GPGSV,3,1,11,12,72,224,21,05,62,031,34,25,45,304,30,02,29,029,30*7D
$GPGSV,3,2,11,193,28,058,24,13,25,134,36,15,24,176,32,29,18,328,31*4E
$GPGSV,3,3,11,24,14,204,29,19,10,109,13,21,04,269,17*48
$GPRMC,060002.000,A,1254.6232,N,07737.8507,E,0.03,50.13,240819,,,A*51
$GPVTG,50.13,T,,M,0.03,N,0.06,K,A*0F
$GPGGA,060003.000,1254.6233,N,07737.8508,E,1,9,0.88,888.2,M,-88.5,M,,*75
$GPGLL,1254.6233,N,07737.8508,E,060003.000,A,A*5B
$GPGSA,A,3,19,12,24,02,15,05,13,25,29,,,,1.62,0.88,1.35*00
$GPGSV,3,1,11,12,72,224,20,05,62,031,34,25,45,304,30,02,29,029,30*7C
$GPGSV,3,2,11,193,28,058,24,13,25,134,36,15,24,176,32,29,18,328,31*4E
$GPGSV,3,3,11,24,14,204,29,19,10,109,15,21,04,269,17*4E
$GPRMC,060003.000,A,1254.6233,N,07737.8508,E,0.02,343.73,240819,,,A*68
$GPVTG,343.73,T,,M,0.02,N,0.03,K,A*3C
$GPGGA,060004.000,1254.6233,N,07737.8508,E,1,9,0.88,888.1,M,-88.5,M,,*71
$GPGLL,1254.6233,N,07737.8508,E,060004.000,A,A*5C
$GPGSA,A,3,19,12,24,02,15,05,13,25,29,,,,1.62,0.88,1.36*03
$GPGSV,3,1,11,12,72,224,19,05,62,031,35,25,45,304,31,02,29,029,30*76
$GPGSV,3,2,11,193,28,058,24,13,25,134,36,15,24,176,31,29,18,328,31*4D
$GPGSV,3,3,11,24,14,204,28,19,10,109,17,21,04,269,17*4D
$GPRMC,060004.000,A,1254.6233,N,07737.8508,E,0.01,5.34,240819,,,A*6E
$GPVTG,5.34,T,,M,0.01,N,0.01,K,A*3F
$GPGGA,060005.000,1254.6234,N,07737.8508,E,1,9,0.88,888.0,M,-88.5,M,,*76
$GPGLL,1254.6234,N,07737.8508,E,060005.000,A,A*5A
$GPGSA,A,3,19,12,24,02,15,05,13,25,29,,,,1.62,0.88,1.36*03
$GPGSV,3,1,11,12,72,224,18,05,62,031,35,25,45,304,31,02,29,029,30*77
$GPGSV,3,2,11,193,28,058,24,13,25,134,36,15,24,176,30,29,18,328,31*4C
$GPGSV,3,3,11,24,14,204,28,19,10,109,15,21,04,269,17*4F
$GPRMC,060005.000,A,1254.6234,N,07737.8508,E,0.02,338.62,240819,,,A*65
$GPVTG,338.62,T,,M,0.02,N,0.03,K,A*30
$GPGGA,060006.000,1254.6235,N,07737.8509,E,1,9,0.88,887.9,M,-88.5,M,,*73
$GPGLL,1254.6235,N,07737.8509,E,060006.000,A,A*59
$GPGSA,A,3,19,12,24,02,15,05,13,25,29,,,,1.62,0.88,1.36*03
$GPGSV,3,1,11,12,72,224,18,05,62,031,35,25,45,304,31,02,29,029,30*77
$GPGSV,3,2,11,193,28,058,24,13,25,134,37,15,24,176,30,29,18,328,31*4D
$GPGSV,3,3,11,24,14,204,28,19,10,109,15,21,04,269,17*4F
$GPRMC,060006.000,A,1254.6235,N,07737.8509,E,0.03,47.39,240819,,,A*52
$GPVTG,47.39,T,,M,0.03,N,0.05,K,A*02
$GPGGA,060007.000,1254.6234,N,07737.8509,E,1,9,0.88,887.9,M,-88.5,M,,*73
$GPGLL,1254.6234,N,07737.8509,E,060007.000,A,A*59
$GPGSA,A,3,19,12,24,02,15,05,13,25,29,,,,1.62,0.88,1.36*03
$GPGSV,3,1,11,12,72,224,18,05,62,031,35,25,45,303,31,02,29,029,30*70
$GPGSV,3,2,11,193,28,058,24,13,25,134,37,15,24,176,30,29,18,328,31*4D
$GPGSV,3,3,11,24,14,204,28,19,10,109,16,21,04,269,17*4C
$GPRMC,060007.000,A,1254.6234,N,07737.8509,E,0.02,165.35,240819,,,A*6E
$GPVTG,165.35,T,,M,0.02,N,0.04,K,A*3F
$GPGGA,060008.000,1254.6234,N,07737.8509,E,1,9,0.88,887.8,M,-88.5,M,,*7D
$GPGLL,1254.6234,N,07737.8509,E,060008.000,A,A*56
$GPGSA,A,3,19,12,24,02,15,05,13,25,29,,,,1.62,0.88,1.36*03
$GPGSV,3,1,11,12,72,224,18,05,62,031,35,25,45,303,31,02,29,029,31*71
$GPGSV,3,2,11,193,28,058,24,13,25,134,37,15,24,176,31,29,18,328,31*4C
$GPGSV,3,3,11,24,14,204,28,19,10,109,16,21,04,269,17*4C
$GPRMC,060008.000,A,1254.6234,N,07737.8509,E,0.01,237.59,240819,,,A*6C
$GPVTG,237.59,T,,M,0.01,N,0.02,K,A*34
$GPGGA,060009.000,1254.6234,N,07737.8508,E,1,9,0.88,887.8,M,-88.5,M,,*7D
$GPGLL,1254.6234,N,07737.8508,E,060009.000,A,A*56
$GPGSA,A,3,19,12,24,02,15,05,13,25,29,,,,1.62,0.88,1.36*03
$GPGSV,3,1,11,12,72,224,18,05,62,031,35,25,45,303,32,02,29,029,31*72
$GPGSV,3,2,11,193,28,058,24,13,25,134,37,15,24,176,31,29,18,328,31*4C
$GPGSV,3,3,11,24,14,204,28,19,10,109,17,21,04,269,17*4D
$GPRMC,060009.000,A,1254.6234,N,07737.8508,E,0.01,282.66,240819,,,A*6E
$GPVTG,282.66,T,,M,0.01,N,0.01,K,A*35
$GPGGA,060010.000,1254.6235,N,07737.8508,E,1,9,0.88,887.7,M,-88.5,M,,*7B
$GPGLL,1254.6235,N,07737.8508,E,060010.000,A,A*5F
$GPGSA,A,3,19,12,24,02,15,05,13,25,29,,,,1.62,0.88,1.36*03
$GPGSV,3,1,11,12,72,224,18,05,62,031,35,25,45,303,32,02,29,029,31*72
$GPGSV,3,2,11,193,28,058,24,13,25,134,37,15,24,176,31,29,18,328,31*4C
$GPGSV,3,3,11,24,14,204,28,19,10,109,18,21,04,269,17*42
$GPRMC,060010.000,A,1254.6235,N,07737.8508,E,0.02,0.91,240819,,,A*64
$GPVTG,0.91,T,,M,0.02,N,0.03,K,A*34
$GPGGA,060011.000,1254.6235,N,07737.8509,E,1,9,0.88,887.6,M,-88.5,M,,*7A
$GPGLL,1254.6235,N,07737.8509,E,060011.000,A,A*5F
$GPGSA,A,3,19,12,24,02,15,05,13,25,29,,,,1.62,0.88,1.36*03
$GPGSV,3,1,11,12,72,224,18,05,62,031,35,25,45,303,32,02,29,029,31*72
$GPGSV,3,2,11,193,28,058,24,13,25,134,37,15,24,176,31,29,18,328,31*4C
$GPGSV,3,3,11,24,14,204,28,19,10,109,18,21,04,269,17*42
$GPRMC,060011.000,A,1254.6235,N,07737.8509,E,0.02,105.30,240819,,,A*6B
$GPVTG,105.30,T,,M,0.02,N,0.05,K,A*3D
$GPGGA,060012.000,1254.6236,N,07737.8508,E,1,9,0.88,887.5,M,-88.5,M,,*78
$GPGLL,1254.6236,N,07737.8508,E,060012.000,A,A*5E
$GPGSA,A,3,19,12,24,02,15,05,13,25,29,,,,1.62,0.88,1.36*03
$GPGSV,3,1,11,12,72,224,18,05,62,031,35,25,45,303,32,02,29,029,32*71
$GPGSV,3,2,11,193,28,058,24,13,25,134,37,15,24,176,31,29,18,328,30*4D
$GPGSV,3,3,11,24,14,204,28,19,10,109,18,21,04,269,17*42
$GPRMC,060012.000,A,1254.6236,N,07737.8508,E,0.01,323.74,240819,,,A*6F
$GPVTG,323.74,T,,M,0.01,N,0.03,K,A*3E
$GPGGA,060013.000,1254.6236,N,07737.8508,E,1,9,0.88,887.5,M,-88.5,M,,*79
$GPGLL,1254.6236,N,07737.8508,E,060013.000,A,A*5F
$GPGSA,A,3,19,12,24,02,15,05,13,25,29,,,,1.62,0.88,1.36*03
$GPGSV,3,1,11,12,72,224,18,05,62,031,35,25,45,303,32,02,29,029,33*70
$GPGSV,3,2,11,193,28,058,24,13,25,134,37,15,24,176,31,29,18,328,30*4D
$GPGSV,3,3,11,24,14,204,28,19,10,109,19,21,04,269,16*42
$GPRMC,060013.000,A,1254.6236,N,07737.8508,E,0.00,252.17,240819,,,A*6D
$GPVTG,252.17,T,,M,0.00,N,0.01,K,A*3F
$GPGGA,060014.000,1254.6236,N,07737.8508,E,1,9,0.88,887.5,M,-88.5,M,,*7E
$GPGLL,1254.6236,N,07737.8508,E,060014.000,A,A*58
$GPGSA,A,3,19,12,24,02,15,05,13,25,29,,,,1.62,0.88,1.36*03
$GPGSV,3,1,11,12,72,224,19,05,62,031,35,25,45,303,32,02,29,029,32*70
$GPGSV,3,2,11,193,28,058,24,13,25,134,37,15,24,176,32,29,18,328,30*4E
$GPGSV,3,3,11,24,14,204,28,19,10,109,19,21,04,269,16*42
$GPRMC,060014.000,A,1254.6236,N,07737.8508,E,0.01,340.01,240819,,,A*6E
$GPVTG,340.01,T,,M,0.01,N,0.02,K,A*38
$GPGGA,060015.000,1254.6236,N,07737.8508,E,1,9,0.88,887.5,M,-88.5,M,,*7F
$GPGLL,1254.6236,N,07737.8508,E,060015.000,A,A*59
$GPGSA,A,3,19,12,24,02,15,05,13,25,29,,,,1.62,0.88,1.36*03
$GPGSV,3,1,11,12,72,224,19,05,62,031,35,25,45,303,32,02,29,029,32*70
$GPGSV,3,2,11,193,28,058,23,13,25,134,37,15,24,176,32,29,18,328,30*49
$GPGSV,3,3,11,24,14,204,28,19,10,109,19,21,04,269,16*42
$GPRMC,060015.000,A,1254.6236,N,07737.8508,E,0.01,236.72,240819,,,A*6B
$GPVTG,236.72,T,,M,0.01,N,0.02,K,A*3C
$GPGGA,060016.000,1254.6236,N,07737.8508,E,1,9,0.88,887.5,M,-88.5,M,,*7C
$GPGLL,1254.6236,N,07737.8508,E,060016.000,A,A*5A
$GPGSA,A,3,19,12,24,02,15,05,13,25,29,,,,1.62,0.88,1.36*03
$GPGSV,3,1,11,12,72,224,20,05,62,031,35,25,45,303,33,02,29,029,33*7A
$GPGSV,3,2,11,193,28,058,23,13,25,134,37,15,24,176,32,29,18,328,30*49
$GPGSV,3,3,11,24,14,204,28,19,10,109,19,21,04,269,16*42
$GPRMC,060016.000,A,1254.6236,N,07737.8508,E,0.03,39.53,240819,,,A*54
$GPVTG,39.53,T,,M,0.03,N,0.05,K,A*07
$GPGGA,060017.000,1254.6236,N,07737.8508,E,1,9,0.88,887.5,M,-88.5,M,,*7D
$GPGLL,1254.6236,N,07737.8508,E,060017.000,A,A*5B
$GPGSA,A,3,19,12,24,02,15,05,13,25,29,,,,1.62,0.88,1.36*03
$GPGSV,3,1,11,12,72,224,21,05,62,031,35,25,45,303,33,02,29,029,33*7B
$GPGSV,3,2,11,193,28,058,23,13,25,134,37,15,24,176,33,29,18,328,30*48
$GPGSV,3,3,11,24,14,204,28,19,10,109,19,21,04,269,16*42
$GPRMC,060017.000,A,1254.6236,N,07737.8508,E,0.03,9.33,240819,,,A*60
$GPVTG,9.33,T,,M,0.03,N,0.06,K,A*31
$GPGGA,060018.000,1254.6236,N,07737.8508,E,1,9,0.88,887.5,M,-88.5,M,,*72
$GPGLL,1254.6236,N,07737.8508,E,060018.000,A,A*54
$GPGSA,A,3,19,12,24,02,15,05,13,25,29,,,,1.62,0.88,1.36*03
$GPGSV,3,1,11,12,72,224,22,05,62,031,35,25,45,303,33,02,29,029,33*78
$GPGSV,3,2,11,193,28,058,23,13,25,134,37,15,24,176,33,29,18,328,30*48
$GPGSV,3,3,11,24,14,204,27,19,10,109,20,21,04,269,16*47
$GPRMC,060018.000,A,1254.6236,N,07737.8508,E,0.02,210.08,240819,,,A*6C
$GPVTG,210.08,T,,M,0.02,N,0.03,K,A*37
$GPGGA,060019.000,1254.6236,N,07737.8508,E,1,9,0.88,887.5,M,-88.5,M,,*73
$GPGLL,1254.6236,N,07737.8508,E,060019.000,A,A*55
$GPGSA,A,3,19,12,24,02,15,05,13,25,29,,,,1.62,0.88,1.36*03
$GPGSV,3,1,11,12,72,224,23,05,62,031,35,25,45,303,34,02,28,029,33*7F
$GPGSV,3,2,11,193,28,058,23,13,25,134,37,15,24,176,33,29,18,328,30*48
$GPGSV,3,3,11,24,14,204,26,19,10,109,21,21,04,269,16*47
$GPRMC,060019.000,A,1254.6236,N,07737.8508,E,0.00,329.06,240819,,,A*6A
$GPVTG,329.06,T,,M,0.00,N,0.01,K,A*32
$GPGGA,060020.000,1254.6236,N,07737.8508,E,1,9,0.88,887.5,M,-88.5,M,,*79
$GPGLL,1254.6236,N,07737.8508,E,060020.000,A,A*5F
$GPGSA,A,3,19,12,24,02,15,05,13,25,29,,,,1.62,0.88,1.36*03
$GPGSV,3,1,11,12,72,224,24,05,62,031,35,25,45,303,34,02,28,029,34*7F
$GPGSV,3,2,11,193,28,058,24,13,25,134,38,15,24,176,33,29,18,328,29*48
$GPGSV,3,3,11,24,14,204,26,19,10,109,21,21,04,269,16*47
$GPRMC,060020.000,A,1254.6236,N,07737.8508,E,0.02,170.56,240819,,,A*69
$GPVTG,170.56,T,,M,0.02,N,0.04,K,A*3E
$GPGGA,060021.000,1254.6236,N,07737.8508,E,1,9,0.88,887.5,M,-88.5,M,,*78
$GPGLL,1254.6236,N,07737.8508,E,060021.000,A,A*5E
$GPGSA,A,3,19,12,24,02,15,05,13,25,29,,,,1.62,0.88,1.36*03
$GPGSV,3,1,11,12,72,224,24,05,62,031,35,25,45,303,34,02,28,029,34*7F
$GPGSV,3,2,11,193,28,058,24,13,25,134,38,15,24,176,33,29,18,328,29*48
$GPGSV,3,3,11,24,14,204,25,19,10,109,21,21,04,269,16*44
$GPRMC,060021.000,A,1254.6236,N,07737.8508,E,0.01,5.61,240819,,,A*6C
$GPVTG,5.61,T,,M,0.01,N,0.02,K,A*3C
$GPGGA,060022.000,1254.6236,N,07737.8508,E,1,9,0.88,887.5,M,-88.5,M,,*7B
$GPGLL,1254.6236,N,07737.8508,E,060022.000,A,A*5D
$GPGSA,A,3,19,12,24,02,15,05,13,25,29,,,,1.62,0.88,1.36*03
$GPGSV,3,1,11,12,72,224,24,05,62,031,35,25,45,303,34,02,28,029,34*7F
$GPGSV,3,2,11,193,28,058,24,13,25,134,38,15,24,176,33,29,18,328,29*48
$GPGSV,3,3,11,24,14,204,25,19,10,109,21,21,04,269,16*44
$GPRMC,060022.000,A,1254.6236,N,07737.8508,E,0.00,0.00,240819,,,A*6C
$GPVTG,0.00,T,,M,0.00,N,0.00,K,A*3D
$GPGGA,060023.000,1254.6236,N,07737.8508,E,1,9,0.88,887.5,M,-88.5,M,,*7A
$GPGLL,1254.6236,N,07737.8508,E,060023.000,A,A*5C
$GPGSA,A,3,19,12,24,02,15,05,13,25,29,,,,1.62,0.88,1.36*03
$GPGSV,3,1,11,12,72,224,24,05,62,031,35,25,45,303,34,02,28,029,34*7F
$GPGSV,3,2,11,193,28,058,24,13,25,134,38,15,24,176,33,29,18,328,29*48
$GPGSV,3,3,11,24,14,204,24,19,10,109,21,21,04,269,16*45
$GPRMC,060023.000,A,1254.6236,N,07737.8508,E,0.00,96.61,240819,,,A*55
$GPVTG,96.61,T,,M,0.00,N,0.01,K,A*04
$GPGGA,060024.000,1254.6236,N,07737.8508,E,1,9,0.88,887.5,M,-88.5,M,,*7D
$GPGLL,1254.6236,N,07737.8508,E,060024.000,A,A*5B
$GPGSA,A,3,19,12,24,02,15,05,13,25,29,,,,1.62,0.88,1.36*03
$GPGSV,3,1,11,12,72,224,25,05,62,031,35,25,45,303,34,02,28,029,34*7E
$GPGSV,3,2,11,193,28,058,24,13,25,134,38,15,24,176,34,29,18,328,29*4F
$GPGSV,3,3,11,24,14,204,23,19,10,109,21,21,04,269,15*41
$GPRMC,060024.000,A,1254.6236,N,07737.8508,E,0.00,180.24,240819,,,A*65
$GPVTG,180.24,T,,M,0.00,N,0.00,K,A*32
$GPGGA,060025.000,1254.6236,N,07737.8508,E,1,9,0.88,887.5,M,-88.5,M,,*7C
$GPGLL,1254.6236,N,07737.8508,E,060025.000,A,A*5A
$GPGSA,A,3,19,12,24,02,15,05,13,25,29,,,,1.62,0.88,1.36*03
$GPGSV,3,1,11,12,72,224,25,05,62,031,36,25,45,303,34,02,28,029,34*7D
$GPGSV,3,2,11,193,28,058,24,13,25,134,38,15,24,176,34,29,18,328,29*4F
$GPGSV,3,3,11,24,14,204,22,19,10,109,21,21,04,269,15*40
$GPRMC,060025.000,A,1254.6236,N,07737.8508,E,0.01,4.31,240819,,,A*6C
$GPVTG,4.31,T,,M,0.01,N,0.03,K,A*39
$GPGGA,060026.000,1254.6236,N,07737.8508,E,1,9,0.88,887.5,M,-88.5,M,,*7F
$GPGLL,1254.6236,N,07737.8508,E,060026.000,A,A*59
$GPGSA,A,3,19,12,24,02,15,05,13,25,29,,,,1.62,0.88,1.36*03
$GPGSV,3,1,11,12,72,224,25,05,62,031,36,25,45,303,34,02,28,029,35*7C
$GPGSV,3,2,11,193,28,058,24,13,25,134,38,15,24,176,34,29,18,328,29*4F
$GPGSV,3,3,11,24,14,204,22,19,10,109,20,21,04,269,15*41
$GPRMC,060026.000,A,1254.6236,N,07737.8508,E,0.01,206.30,240819,,,A*6E
$GPVTG,206.30,T,,M,0.01,N,0.02,K,A*39
$GPGGA,060027.000,1254.6236,N,07737.8508,E,1,9,0.88,887.5,M,-88.5,M,,*7E
$GPGLL,1254.6236,N,07737.8508,E,060027.000,A,A*58
$GPGSA,A,3,19,12,24,02,15,05,13,25,29,,,,1.62,0.88,1.36*03
$GPGSV,3,1,11,12,72,224,25,05,62,031,36,25,45,303,34,02,28,029,35*7C
$GPGSV,3,2,11,193,28,058,23,13,25,134,38,15,24,176,34,29,18,328,29*48
$GPGSV,3,3,11,24,14,204,22,19,10,109,20,21,04,269,15*41
$GPRMC,060027.000,A,1254.6236,N,07737.8508,E,0.02,84.42,240819,,,A*51
$GPVTG,84.42,T,,M,0.02,N,0.03,K,A*06
$GPGGA,060028.000,1254.6236,N,07737.8508,E,1,9,0.88,887.5,M,-88.5,M,,*71
$GPGLL,1254.6236,N,07737.8508,E,060028.000,A,A*57
$GPGSA,A,3,19,12,24,02,15,05,13,25,29,,,,1.62,0.88,1.36*03
$GPGSV,3,1,11,12,72,224,25,05,62,031,36,25,45,303,34,02,28,029,35*7C
$GPGSV,3,2,11,193,28,058,23,13,25,134,38,15,24,176,34,29,18,328,29*48
$GPGSV,3,3,11,24,14,204,21,19,10,109,20,21,04,269,14*43
$GPRMC,060028.000,A,1254.6236,N,07737.8508,E,0.01,264.83,240819,,,A*6C
$GPVTG,264.83,T,,M,0.01,N,0.03,K,A*34
$GPGGA,060029.000,1254.6236,N,07737.8508,E,1,9,0.88,887.5,M,-88.5,M,,*70
$GPGLL,1254.6236,N,07737.8508,E,060029.000,A,A*56
$GPGSA,A,3,19,12,24,02,15,05,13,25,29,,,,1.62,0.88,1.36*03
$GPGSV,3,1,11,12,72,223,25,05,62,031,36,25,45,303,35,02,28,029,35*7A
$GPGSV,3,2,11,193,28,058,23,13,25,134,38,15,24,176,35,29,18,328,28*48
$GPGSV,3,3,11,24,14,204,20,19,10,109,20,21,04,269,14*42
$GPRMC,060029.000,A,1254.6236,N,07737.8508,E,0.02,76.72,240819,,,A*51
$GPVTG,76.72,T,,M,0.02,N,0.04,K,A*0F
$GPGGA,060030.000,1254.6236,N,07737.8508,E,1,9,0.88,887.5,M,-88.5,M,,*78
$GPGLL,1254.6236,N,07737.8508,E,060030.000,A,A*5E
$GPGSA,A,3,19,12,24,02,15,05,13,25,29,,,,1.62,0.88,1.36*03
$GPGSV,3,1,11,12,72,223,25,05,62,031,36,25,45,303,35,02,28,029,35*7A
$GPGSV,3,2,11,193,28,058,22,13,25,134,38,15,24,176,35,29,18,328,28*49
$GPGSV,3,3,11,24,14,204,20,19,10,109,20,21,04,269,14*42
$GPRMC,060030.000,A,1254.6236,N,07737.8508,E,0.00,326.97,240819,,,A*66
$GPVTG,326.97,T,,M,0.00,N,0.00,K,A*34
$GPGGA,060031.000,1254.6236,N,07737.8508,E,1,9,0.88,887.5,M,-88.5,M,,*79
$GPGLL,1254.6236,N,07737.8508,E,060031.000,A,A*5F
$GPGSA,A,3,19,12,24,02,15,05,13,25,29,,,,1.62,0.88,1.36*03
$GPGSV,3,1,11,12,72,223,25,05,62,031,36,25,45,303,35,02,28,029,36*79
$GPGSV,3,2,11,193,28,058,22,13,25,134,38,15,24,176,35,29,18,328,28*49
$GPGSV,3,3,11,24,14,204,20,19,10,109,20,21,04,269,14*42
$GPRMC,060031.000,A,1254.6236,N,07737.8508,E,0.01,116.24,240819,,,A*6F
$GPVTG,116.24,T,,M,0.01,N,0.02,K,A*3E
$GPGGA,060032.000,1254.6236,N,07737.8508,E,1,9,0.88,887.5,M,-88.5,M,,*7A
$GPGLL,1254.6236,N,07737.8508,E,060032.000,A,A*5C
$GPGSA,A,3,19,12,24,02,15,05,13,25,29,,,,1.62,0.88,1.36*03
$GPGSV,3,1,11,12,72,223,25,05,62,031,36,25,45,303,35,02,28,029,36*79
$GPGSV,3,2,11,193,28,058,22,13,25,134,38,15,24,176,35,29,18,328,28*49
$GPGSV,3,3,11,24,14,204,21,19,10,109,21,21,04,269,14*42
$GPRMC,060032.000,A,1254.6236,N,07737.8508,E,0.02,268.99,240819,,,A*63
$GPVTG,268.99,T,,M,0.02,N,0.04,K,A*37
$GPGGA,060033.000,1254.6236,N,07737.8508,E,1,9,0.88,887.5,M,-88.5,M,,*7B
$GPGLL,1254.6236,N,07737.8508,E,060033.000,A,A*5D
$GPGSA,A,3,19,12,24,02,15,05,13,25,29,,,,1.62,0.88,1.36*03
$GPGSV,3,1,11,12,72,223,25,05,62,031,36,25,45,303,35,02,28,029,36*79
$GPGSV,3,2,11,193,28,058,23,13,25,134,38,15,24,176,35,29,18,328,28*48
$GPGSV,3,3,11,24,14,204,21,19,10,109,22,21,04,269,14*41
$GPRMC,060033.000,A,1254.6236,N,07737.8508,E,0.01,10.74,240819,,,A*5F
$GPVTG,10.74,T,,M,0.01,N,0.01,K,A*0F
$GPGGA,060034.000,1254.6236,N,07737.8508,E,1,9,0.88,887.5,M,-88.5,M,,*7C
$GPGLL,1254.6236,N,07737.8508,E,060034.000,A,A*5A
$GPGSA,A,3,19,12,24,02,15,05,13,25,29,,,,1.62,0.88,1.36*03
$GPGSV,3,1,11,12,72,223,25,05,62,031,36,25,45,303,35,02,28,029,36*79
$GPGSV,3,2,11,193,28,058,23,13,25,134,38,15,24,176,35,29,18,328,28*48
$GPGSV,3,3,11,24,14,204,21,19,10,109,22,21,04,269,15*40
$GPRMC,060034.000,A,1254.6236,N,07737.8508,E,0.00,8.93,240819,,,A*69
$GPVTG,8.93,T,,M,0.00,N,0.01,K,A*3E
$GPGGA,060035.000,1254.6236,N,07737.8508,E,1,9,0.88,887.5,M,-88.5,M,,*7D
$GPGLL,1254.6236,N,07737.8508,E,060035.000,A,A*5B
$GPGSA,A,3,19,12,24,02,15,05,13,25,29,,,,1.62,0.88,1.36*03
$GPGSV,3,1,11,12,72,223,25,05,62,031,36,25,45,303,35,02,28,029,36*79
$GPGSV,3,2,11,193,28,058,23,13,25,134,38,15,24,176,35,29,18,328,28*48
$GPGSV,3,3,11,24,14,204,21,19,10,109,23,21,04,269,15*41
$GPRMC,060035.000,A,1254.6236,N,07737.8508,E,0.02,81.25,240819,,,A*56
$GPVTG,81.25,T,,M,0.02,N,0.03,K,A*02
$GPGGA,060036.000,1254.6236,N,07737.8508,E,1,9,0.88,887.5,M,-88.5,M,,*7E
$GPGLL,1254.6236,N,07737.8508,E,060036.000,A,A*58
$GPGSA,A,3,19,12,24,02,15,05,13,25,29,,,,1.62,0.88,1.36*03
$GPGSV,3,1,11,12,72,223,25,05,62,031,36,25,45,303,35,02,28,029,36*79
$GPGSV,3,2,11,193,28,058,23,13,25,134,38,15,24,176,35,29,18,328,28*48
$GPGSV,3,3,11,24,14,204,22,19,10,109,23,21,04,269,15*42
$GPRMC,060036.000,A,1254.6236,N,07737.8508,E,0.00,187.73,240819,,,A*63
$GPVTG,187.73,T,,M,0.00,N,0.01,K,A*36
$GPGGA,060037.000,1254.6236,N,07737.8508,E,1,9,0.88,887.5,M,-88.5,M,,*7F
$GPGLL,1254.6236,N,07737.8508,E,060037.000,A,A*59
$GPGSA,A,3,19,12,24,02,15,05,13,25,29,,,,1.62,0.88,1.36*03
$GPGSV,3,1,11,12,72,223,25,05,62,031,36,25,45,303,35,02,28,029,36*79
$GPGSV,3,2,11,193,28,058,23,13,25,134,38,15,24,176,35,29,18,328,28*48
$GPGSV,3,3,11,24,14,204,23,19,10,109,24,21,04,269,15*44
$GPRMC,060037.000,A,1254.6236,N,07737.8508,E,0.01,172.79,240819,,,A*63
$GPVTG,172.79,T,,M,0.01,N,0.02,K,A*34
$GPGGA,060038.000,1254.6236,N,07737.8508,E,1,9,0.88,887.5,M,-88.5,M,,*70
$GPGLL,1254.6236,N,07737.8508,E,060038.000,A,A*56
$GPGSA,A,3,19,12,24,02,15,05,13,25,29,,,,1.62,0.88,1.36*03
$GPGSV,3,1,11,12,72,223,25,05,62,031,36,25,45,303,35,02,28,029,36*79
$GPGSV,3,2,11,193,28,058,22,13,25,134,38,15,24,176,35,29,18,328,28*49
$GPGSV,3,3,11,24,14,204,23,19,10,109,24,21,04,269,15*44
$GPRMC,060038.000,A,1254.6236,N,07737.8508,E,0.01,43.06,240819,,,A*57
$GPVTG,43.06,T,,M,0.01,N,0.02,K,A*0F
$GPGGA,060039.000,1254.6236,N,07737.8508,E,1,9,0.88,887.5,M,-88.5,M,,*71
$GPGLL,1254.6236,N,07737.8508,E,060039.000,A,A*57
$GPGSA,A,3,19,12,24,02,15,05,13,25,29,,,,1.62,0.88,1.36*03
$GPGSV,3,1,11,12,72,223,25,05,62,031,36,25,45,303,35,02,28,029,36*79
$GPGSV,3,2,11,193,28,058,22,13,25,134,38,15,24,176,35,29,18,328,28*49
$GPGSV,3,3,11,24,14,204,23,19,10,109,24,21,04,269,15*44
$GPRMC,060039.000,A,1254.6236,N,07737.8508,E,0.02,260.84,240819,,,A*6C
$GPVTG,260.84,T,,M,0.02,N,0.04,K,A*33
$GPGGA,060040.000,1254.6236,N,07737.8508,E,1,9,0.88,887.5,M,-88.5,M,,*7F
$GPGLL,1254.6236,N,07737.8508,E,060040.000,A,A*59
$GPGSA,A,3,19,12,24,02,15,05,13,25,29,,,,1.62,0.88,1.36*03
$GPGSV,3,1,11,12,72,223,25,05,62,031,36,25,45,303,35,02,28,029,36*79
$GPGSV,3,2,11,193,28,058,22,13,25,134,38,15,24,176,35,29,18,328,28*49
$GPGSV,3,3,11,24,14,204,24,19,10,109,24,21,04,269,15*43
$GPRMC,060040.000,A,1254.6236,N,07737.8508,E,0.01,134.77,240819,,,A*6F
$GPVTG,134.77,T,,M,0.01,N,0.03,K,A*39
$GPGGA,060041.000,1254.6236,N,07737.8508,E,1,9,0.88,887.5,M,-88.5,M,,*7E
$GPGLL,1254.6236,N,07737.8508,E,060041.000,A,A*58
$GPGSA,A,3,19,12,24,02,15,05,13,25,29,,,,1.62,0.88,1.36*03
$GPGSV,3,1,11,12,72,223,25,05,62,031,36,25,45,303,35,02,28,029,36*79
$GPGSV,3,2,11,193,28,058,22,13,25,134,38,15,24,176,35,29,18,328,27*46
$GPGSV,3,3,11,24,14,204,24,19,10,109,25,21,04,269,16*41
$GPRMC,060041.000,A,1254.6236,N,07737.8508,E,0.02,64.87,240819,,,A*56
$GPVTG,64.87,T,,M,0.02,N,0.04,K,A*06
$GPGGA,060042.000,1254.6236,N,07737.8508,E,1,9,0.88,887.5,M,-88.5,M,,*7D
$GPGLL,1254.6236,N,07737.8508,E,060042.000,A,A*5B
$GPGSA,A,3,19,12,24,02,15,05,13,25,29,,,,1.62,0.88,1.36*03
$GPGSV,3,1,11,12,72,223,25,05,62,031,36,25,45,303,35,02,28,029,36*79
$GPGSV,3,2,11,193,28,058,22,13,25,134,38,15,24,176,35,29,18,328,27*46
$GPGSV,3,3,11,24,14,204,24,19,10,109,26,21,04,269,16*42
$GPRMC,060042.000,A,1254.6236,N,07737.8508,E,0.02,290.37,240819,,,A*67
$GPVTG,290.37,T,,M,0.02,N,0.04,K,A*34
$GPGGA,060043.000,1254.6236,N,07737.8508,E,1,9,0.88,887.5,M,-88.5,M,,*7C
$GPGLL,1254.6236,N,07737.8508,E,060043.000,A,A*5A
$GPGSA,A,3,19,12,24,02,15,05,13,25,29,,,,1.62,0.88,1.36*03
$GPGSV,3,1,11,12,72,223,24,05,62,031,36,25,45,303,35,02,28,029,36*78
$GPGSV,3,2,11,193,28,058,22,13,25,134,38,15,24,176,35,29,18,328,27*46
$GPGSV,3,3,11,24,14,204,25,19,10,109,26,21,04,269,16*43
$GPRMC,060043.000,A,1254.6236,N,07737.8508,E,0.01,125.22,240819,,,A*6C
$GPVTG,125.22,T,,M,0.01,N,0.02,K,A*38
$GPGGA,060044.000,1254.6236,N,07737.8508,E,1,9,0.88,887.5,M,-88.5,M,,*7B
$GPGLL,1254.6236,N,07737.8508,E,060044.000,A,A*5D
$GPGSA,A,3,19,12,24,02,15,05,13,25,29,,,,1.62,0.88,1.36*03
$GPGSV,3,1,11,12,72,223,24,05,62,031,36,25,45,303,34,02,28,029,36*79
$GPGSV,3,2,11,193,28,058,21,13,25,134,38,15,24,176,36,29,18,328,28*49
$GPGSV,3,3,11,24,14,204,25,19,10,109,26,21,04,269,16*43
$GPRMC,060044.000,A,1254.6236,N,07737.8508,E,0.01,333.23,240819,,,A*6F
$GPVTG,333.23,T,,M,0.01,N,0.02,K,A*3C
$GPGGA,060045.000,1254.6236,N,07737.8508,E,1,9,0.88,887.5,M,-88.5,M,,*7A
$GPGLL,1254.6236,N,07737.8508,E,060045.000,A,A*5C
$GPGSA,A,3,19,12,24,02,15,05,13,25,29,,,,1.62,0.88,1.36*03
$GPGSV,3,1,11,12,72,223,24,05,62,031,36,25,45,303,34,02,28,029,36*79
$GPGSV,3,2,11,193,28,058,21,13,25,134,38,15,24,176,36,29,18,328,28*49
$GPGSV,3,3,11,24,14,204,25,19,10,109,26,21,04,269,16*43
$GPRMC,060045.000,A,1254.6236,N,07737.8508,E,0.00,332.51,240819,,,A*6B
$GPVTG,332.51,T,,M,0.00,N,0.01,K,A*3A
$GPGGA,060046.000,1254.6236,N,07737.8508,E,1,9,0.88,887.5,M,-88.5,M,,*79
$GPGLL,1254.6236,N,07737.8508,E,060046.000,A,A*5F
$GPGSA,A,3,19,12,24,02,15,05,13,25,29,,,,1.62,0.88,1.36*03
$GPGSV,3,1,11,12,72,223,24,05,62,031,36,25,45,303,34,02,28,029,36*79
$GPGSV,3,2,11,193,28,058,21,13,25,134,38,15,24,176,36,29,18,328,28*49
$GPGSV,3,3,11,24,14,204,26,19,10,109,27,21,04,269,15*42
$GPRMC,060046.000,A,1254.6236,N,07737.8508,E,0.00,234.24,240819,,,A*6D
$GPVTG,234.24,T,,M,0.00,N,0.00,K,A*3E
$GPGGA,060047.000,1254.6236,N,07737.8508,E,1,9,0.88,887.5,M,-88.5,M,,*78
$GPGLL,1254.6236,N,07737.8508,E,060047.000,A,A*5E
$GPGSA,A,3,19,12,24,02,15,05,13,25,29,,,,1.62,0.88,1.36*03
$GPGSV,3,1,11,12,72,223,22,05,62,031,36,25,45,303,34,02,28,029,36*7F
$GPGSV,3,2,11,193,28,058,21,13,25,134,39,15,24,176,36,29,18,328,28*48
$GPGSV,3,3,11,24,14,204,27,19,10,109,26,21,04,269,15*42
$GPRMC,060047.000,A,1254.6236,N,07737.8508,E,0.01,69.69,240819,,,A*5E
$GPVTG,69.69,T,,M,0.01,N,0.02,K,A*0E
$GPGGA,060048.000,1254.6236,N,07737.8508,E,1,9,0.88,887.5,M,-88.5,M,,*77
$GPGLL,1254.6236,N,07737.8508,E,060048.000,A,A*51
$GPGSA,A,3,19,12,24,02,15,05,13,25,29,,,,1.62,0.88,1.36*03
$GPGSV,3,1,11,12,72,223,21,05,62,031,36,25,45,303,34,02,28,029,36*7C
$GPGSV,3,2,11,193,28,058,21,13,25,134,39,15,24,176,35,29,18,328,28*4B
$GPGSV,3,3,11,24,14,204,27,19,10,109,25,21,04,269,15*41
$GPRMC,060048.000,A,1254.6236,N,07737.8508,E,0.00,177.36,240819,,,A*64
$GPVTG,177.36,T,,M,0.00,N,0.01,K,A*38
$GPGGA,060049.000,1254.6236,N,07737.8508,E,1,9,0.88,887.5,M,-88.5,M,,*76
$GPGLL,1254.6236,N,07737.8508,E,060049.000,A,A*50
$GPGSA,A,3,19,12,24,02,15,05,13,25,29,,,,1.62,0.88,1.36*03
$GPGSV,3,1,11,12,72,223,20,05,62,031,36,25,45,303,34,02,28,029,36*7D
$GPGSV,3,2,11,193,28,058,21,13,25,134,39,15,24,176,34,29,18,328,28*4A
$GPGSV,3,3,11,24,14,204,27,19,10,109,25,21,04,269,15*41
$GPRMC,060049.000,A,1254.6236,N,07737.8508,E,0.01,344.63,240819,,,A*66
$GPVTG,344.63,T,,M,0.01,N,0.01,K,A*3B
$GPGGA,060050.000,1254.6236,N,07737.8508,E,1,9,0.88,887.5,M,-88.5,M,,*7E
$GPGLL,1254.6236,N,07737.8508,E,060050.000,A,A*58
$GPGSA,A,3,19,12,24,02,15,05,13,25,29,,,,1.62,0.88,1.36*03
$GPGSV,3,1,11,12,72,223,19,05,62,031,36,25,45,303,34,02,28,029,36*77
$GPGSV,3,2,11,193,28,058,21,13,25,134,39,15,24,176,34,29,18,328,28*4A
$GPGSV,3,3,11,24,14,204,27,19,10,109,25,21,04,269,15*41
$GPRMC,060050.000,A,1254.6236,N,07737.8508,E,0.01,222.88,240819,,,A*6A
$GPVTG,222.88,T,,M,0.01,N,0.02,K,A*3C
$GPGGA,060051.000,1254.6236,N,07737.8508,E,1,9,0.88,887.5,M,-88.5,M,,*7F
$GPGLL,1254.6236,N,07737.8508,E,060051.000,A,A*59
$GPGSA,A,3,19,12,24,02,15,05,13,25,29,,,,1.62,0.88,1.36*03
$GPGSV,3,1,11,12,72,223,18,05,62,031,36,25,45,303,35,02,28,029,36*77
$GPGSV,3,2,11,193,28,058,20,13,25,134,39,15,24,176,34,29,18,328,28*4B
$GPGSV,3,3,11,24,14,204,27,19,10,109,25,21,04,269,15*41
$GPRMC,060051.000,A,1254.6236,N,07737.8508,E,0.01,0.13,240819,,,A*6B
$GPVTG,0.13,T,,M,0.01,N,0.01,K,A*3F
$GPGGA,060052.000,1254.6236,N,07737.8508,E,1,9,0.88,887.5,M,-88.5,M,,*7C
$GPGLL,1254.6236,N,07737.8508,E,060052.000,A,A*5A
$GPGSA,A,3,19,12,24,02,15,05,13,25,29,,,,1.62,0.88,1.36*03
$GPGSV,3,1,11,12,72,223,18,05,62,031,36,25,45,303,35,02,28,029,36*77
$GPGSV,3,2,11,193,28,058,20,13,25,134,39,15,24,176,34,29,18,328,28*4B
$GPGSV,3,3,11,24,14,204,28,19,10,109,25,21,04,269,14*4F
$GPRMC,060052.000,A,1254.6236,N,07737.8508,E,0.01,71.53,240819,,,A*5A
$GPVTG,71.53,T,,M,0.01,N,0.01,K,A*0D
$GPGGA,060053.000,1254.6236,N,07737.8508,E,1,9,0.88,887.5,M,-88.5,M,,*7D
$GPGLL,1254.6236,N,07737.8508,E,060053.000,A,A*5B
$GPGSA,A,3,19,12,24,02,15,05,13,25,29,,,,1.62,0.88,1.36*03
$GPGSV,3,1,11,12,72,223,18,05,62,031,36,25,45,303,35,02,28,029,36*77
$GPGSV,3,2,11,193,28,058,20,13,25,134,39,15,24,176,34,29,18,328,28*4B
$GPGSV,3,3,11,24,14,204,28,19,10,109,25,21,04,269,14*4F
$GPRMC,060053.000,A,1254.6236,N,07737.8508,E,0.01,218.58,240819,,,A*6D
$GPVTG,218.58,T,,M,0.01,N,0.03,K,A*39
$GPGGA,060054.000,1254.6236,N,07737.8508,E,1,9,0.88,887.5,M,-88.5,M,,*7A
$GPGLL,1254.6236,N,07737.8508,E,060054.000,A,A*5C
$GPGSA,A,3,19,12,24,02,15,05,13,25,29,,,,1.62,0.88,1.36*03
$GPGSV,3,1,11,12,72,223,18,05,62,031,36,25,45,303,35,02,28,029,36*77
$GPGSV,3,2,11,193,28,058,20,13,25,134,39,15,24,176,34,29,18,328,28*4B
$GPGSV,3,3,11,24,14,204,28,19,10,109,24,21,04,269,14*4E
$GPRMC,060054.000,A,1254.6236,N,07737.8508,E,0.02,62.38,240819,,,A*50
$GPVTG,62.38,T,,M,0.02,N,0.03,K,A*03
$GPGGA,060055.000,1254.6236,N,07737.8508,E,1,9,0.88,887.5,M,-88.5,M,,*7B
$GPGLL,1254.6236,N,07737.8508,E,060055.000,A,A*5D
$GPGSA,A,3,19,12,24,02,15,05,13,25,29,,,,1.62,0.88,1.36*03
$GPGSV,3,1,11,12,72,223,18,05,62,031,36,25,45,303,35,02,28,029,36*77
$GPGSV,3,2,11,193,28,058,20,13,25,134,39,15,24,176,34,29,18,328,28*4B
$GPGSV,3,3,11,24,14,204,28,19,10,109,24,21,04,269,14*4E
$GPRMC,060055.000,A,1254.6236,N,07737.8508,E,0.01,300.37,240819,,,A*6A
$GPVTG,300.37,T,,M,0.01,N,0.02,K,A*39
$GPGGA,060056.000,1254.6236,N,07737.8508,E,1,9,0.88,887.5,M,-88.5,M,,*78
$GPGLL,1254.6236,N,07737.8508,E,060056.000,A,A*5E
$GPGSA,A,3,19,12,24,02,15,05,13,25,29,,,,1.62,0.88,1.36*03
$GPGSV,3,1,11,12,72,223,17,05,62,031,36,25,45,303,35,02,28,029,36*78
$GPGSV,3,2,11,193,28,058,20,13,25,134,39,15,24,176,34,29,18,328,28*4B
$GPGSV,3,3,11,24,14,204,28,19,10,109,24,21,04,269,14*4E
$GPRMC,060056.000,A,1254.6236,N,07737.8508,E,0.01,212.38,240819,,,A*64
$GPVTG,212.38,T,,M,0.01,N,0.01,K,A*37
$GPGGA,060057.000,1254.6236,N,07737.8508,E,1,9,0.88,887.5,M,-88.5,M,,*79
$GPGLL,1254.6236,N,07737.8508,E,060057.000,A,A*5F
$GPGSA,A,3,19,12,24,02,15,05,13,25,29,,,,1.62,0.88,1.36*03
$GPGSV,3,1,11,12,72,223,16,05,62,030,36,25,45,303,35,02,28,029,35*7B
$GPGSV,3,2,11,193,28,058,19,13,25,134,39,15,24,176,34,29,18,328,28*41
$GPGSV,3,3,11,24,14,204,28,19,10,109,24,21,04,269,14*4E
$GPRMC,060057.000,A,1254.6236,N,07737.8508,E,0.00,239.48,240819,,,A*6A
$GPVTG,239.48,T,,M,0.00,N,0.01,K,A*38
$GPGGA,060058.000,1254.6236,N,07737.8508,E,1,9,0.88,887.5,M,-88.5,M,,*76
$GPGLL,1254.6236,N,07737.8508,E,060058.000,A,A*50
$GPGSA,A,3,19,12,24,02,15,05,13,25,29,,,,1.62,0.88,1.36*03
$GPGSV,3,1,11,12,72,223,15,05,62,030,36,25,45,303,35,02,28,029,35*78
$GPGSV,3,2,11,193,28,058,19,13,25,134,39,15,24,176,34,29,18,328,28*41
$GPGSV,3,3,11,24,14,204,28,19,10,109,24,21,04,269,15*4F
$GPRMC,060058.000,A,1254.6236,N,07737.8508,E,0.01,275.77,240819,,,A*60
$GPVTG,275.77,T,,M,0.01,N,0.02,K,A*3E
$GPGGA,060059.000,1254.6236,N,07737.8508,E,1,9,0.88,887.5,M,-88.5,M,,*77
$GPGLL,1254.6236,N,07737.8508,E,060059.000,A,A*51
$GPGSA,A,3,19,12,24,02,15,05,13,25,29,,,,1.62,0.88,1.36*03
$GPGSV,3,1,11,12,72,223,15,05,62,030,36,25,45,303,35,02,28,029,35*78
$GPGSV,3,2,11,193,28,058,18,13,25,134,39,15,24,176,34,29,18,328,28*40
$GPGSV,3,3,11,24,14,204,28,19,10,109,24,21,04,269,15*4F
$GPRMC,060059.000,A,1254.6236,N,07737.8508,E,0.01,78.63,240819,,,A*5B
$GPVTG,78.63,T,,M,0.01,N,0.02,K,A*04
$GPGGA,060100.000,1254.6236,N,07737.8508,E,1,9,0.88,887.5,M,-88.5,M,,*7A
$GPGLL,1254.6236,N,07737.8508,E,060100.000,A,A*5C
$GPGSA,A,3,19,12,24,02,15,05,13,25,29,,,,1.62,0.88,1.36*03
$GPGSV,3,1,11,12,72,223,15,05,62,030,36,25,45,303,35,02,28,029,35*78
$GPGSV,3,2,11,193,28,058,18,13,25,134,39,15,24,176,34,29,18,328,28*40
$GPGSV,3,3,11,24,14,204,28,19,10,109,24,21,04,269,15*4F
$GPRMC,060100.000,A,1254.6236,N,07737.8508,E,0.00,293.68,240819,,,A*6B
$GPVTG,293.68,T,,M,0.00,N,0.01,K,A*3A
$GPGGA,060101.000,1254.6236,N,07737.8508,E,1,9,0.88,887.5,M,-88.5,M,,*7B
$GPGLL,1254.6236,N,07737.8508,E,060101.000,A,A*5D
$GPGSA,A,3,19,12,24,02,15,05,13,25,29,,,,1.62,0.88,1.36*03
$GPGSV,3,1,11,12,72,223,16,05,62,030,36,25,45,303,35,02,28,029,35*7B
$GPGSV,3,2,11,193,28,058,18,13,25,134,39,15,24,176,34,29,18,328,29*41
$GPGSV,3,3,11,24,14,204,28,19,10,109,24,21,04,269,14*4E
$GPRMC,060101.000,A,1254.6236,N,07737.8508,E,0.01,273.18,240819,,,A*62
$GPVTG,273.18,T,,M,0.01,N,0.02,K,A*31
$GPGGA,060102.000,1254.6236,N,07737.8508,E,1,9,0.88,887.5,M,-88.5,M,,*78
$GPGLL,1254.6236,N,07737.8508,E,060102.000,A,A*5E
$GPGSA,A,3,19,12,24,02,15,05,13,25,29,,,,1.62,0.88,1.36*03
$GPGSV,3,1,11,12,72,223,14,05,62,030,36,25,45,303,35,02,28,029,35*79
$GPGSV,3,2,11,193,28,058,18,13,25,134,39,15,24,176,34,29,18,328,30*49
$GPGSV,3,3,11,24,14,204,29,19,10,109,23,21,04,269,14*48
$GPRMC,060102.000,A,1254.6236,N,07737.8508,E,0.01,114.55,240819,,,A*6A
$GPVTG,114.55,T,,M,0.01,N,0.02,K,A*3A
$GPGGA,060103.000,1254.6236,N,07737.8508,E,1,9,0.88,887.5,M,-88.5,M,,*79
$GPGLL,1254.6236,N,07737.8508,E,060103.000,A,A*5F
$GPGSA,A,3,19,12,24,02,15,05,13,25,29,,,,1.62,0.88,1.36*03
$GPGSV,3,1,11,12,72,223,16,05,62,030,36,25,45,303,35,02,28,029,35*7B
$GPGSV,3,2,11,193,28,058,18,13,25,134,39,15,24,176,33,29,18,328,30*4E
$GPGSV,3,3,11,24,14,204,29,19,10,109,23,21,04,269,14*48
$GPRMC,060103.000,A,1254.6236,N,07737.8508,E,0.01,317.44,240819,,,A*6A
$GPVTG,317.44,T,,M,0.01,N,0.01,K,A*38
$GPGGA,060104.000,1254.6236,N,07737.8508,E,1,9,0.88,887.5,M,-88.5,M,,*7E
$GPGLL,1254.6236,N,07737.8508,E,060104.000,A,A*58
$GPGSA,A,3,19,12,24,02,15,05,13,25,29,,,,1.62,0.88,1.36*03
$GPGSV,3,1,11,12,72,223,16,05,62,030,36,25,45,303,35,02,28,029,35*7B
$GPGSV,3,2,11,193,28,058,18,13,25,134,39,15,24,176,33,29,18,328,30*4E
$GPGSV,3,3,11,24,14,204,29,19,10,109,23,21,04,269,14*48
$GPRMC,060104.000,A,1254.6236,N,07737.8508,E,0.00,351.63,240819,,,A*6B
$GPVTG,351.63,T,,M,0.00,N,0.01,K,A*3E
$GPGGA,060105.000,1254.6236,N,07737.8508,E,1,9,0.88,887.5,M,-88.5,M,,*7F
$GPGLL,1254.6236,N,07737.8508,E,060105.000,A,A*59
$GPGSA,A,3,19,12,24,02,15,05,13,25,29,,,,1.62,0.88,1.36*03
$GPGSV,3,1,11,12,72,223,17,05,62,030,37,25,45,303,35,02,28,029,35*7B
$GPGSV,3,2,11,193,28,058,18,13,25,134,39,15,24,176,33,29,18,328,30*4E
$GPGSV,3,3,11,24,14,204,29,19,10,109,23,21,04,269,14*48
$GPRMC,060105.000,A,1254.6236,N,07737.8508,E,0.01,325.90,240819,,,A*64
$GPVTG,325.90,T,,M,0.01,N,0.02,K,A*33
$GPGGA,060106.000,1254.6236,N,07737.8508,E,1,9,0.88,887.5,M,-88.5,M,,*7C
$GPGLL,1254.6236,N,07737.8508,E,060106.000,A,A*5A
$GPGSA,A,3,19,12,24,02,15,05,13,25,29,,,,1.62,0.88,1.36*03
$GPGSV,3,1,11,12,72,223,17,05,62,030,37,25,45,303,35,02,28,029,35*7B
$GPGSV,3,2,11,193,28,058,18,13,25,134,39,15,24,176,33,29,18,328,31*4F
$GPGSV,3,3,11,24,14,204,29,19,10,109,23,21,04,269,14*48
$GPRMC,060106.000,A,1254.6236,N,07737.8508,E,0.03,221.24,240819,,,A*6F
$GPVTG,221.24,T,,M,0.03,N,0.05,K,A*3C
$GPGGA,060107.000,1254.6236,N,07737.8508,E,1,9,0.88,887.5,M,-88.5,M,,*7D
$GPGLL,1254.6236,N,07737.8508,E,060107.000,A,A*5B
$GPGSA,A,3,19,12,24,02,15,05,13,25,29,,,,1.62,0.88,1.36*03
$GPGSV,3,1,11,12,72,223,17,05,62,030,37,25,45,303,35,02,28,029,35*7B
$GPGSV,3,2,11,193,28,058,18,13,25,134,39,15,25,176,33,29,18,328,32*4D
$GPGSV,3,3,11,24,14,204,29,19,10,109,23,21,04,269,14*48
$GPRMC,060107.000,A,1254.6236,N,07737.8508,E,0.01,49.33,240819,,,A*56
$GPVTG,49.33,T,,M,0.01,N,0.02,K,A*03
$GPGGA,060108.000,1254.6236,N,07737.8508,E,1,9,0.88,887.5,M,-88.5,M,,*72
$GPGLL,1254.6236,N,07737.8508,E,060108.000,A,A*54
$GPGSA,A,3,19,12,24,02,15,05,13,25,29,,,,1.62,0.88,1.36*03
$GPGSV,3,1,11,12,72,223,16,05,62,030,37,25,45,303,35,02,28,029,35*7A
$GPGSV,3,2,11,193,28,058,18,13,25,134,39,15,25,176,33,29,18,328,32*4D
$GPGSV,3,3,11,24,14,204,28,19,10,109,24,21,04,269,14*4E
$GPRMC,060108.000,A,1254.6236,N,07737.8508,E,0.02,162.01,240819,,,A*63
$GPVTG,162.01,T,,M,0.02,N,0.03,K,A*38
$GPGGA,060109.000,1254.6236,N,07737.8508,E,1,9,0.88,887.5,M,-88.5,M,,*73
$GPGLL,1254.6236,N,07737.8508,E,060109.000,A,A*55
$GPGSA,A,3,19,12,24,02,15,05,13,25,29,,,,1.62,0.88,1.36*03
$GPGSV,3,1,11,12,72,223,16,05,62,030,37,25,45,303,35,02,28,029,35*7A
$GPGSV,3,2,11,193,28,058,17,13,25,134,39,15,25,176,33,29,18,328,32*42
$GPGSV,3,3,11,24,14,204,28,19,10,109,24,21,04,269,15*4F
$GPRMC,060109.000,A,1254.6236,N,07737.8508,E,0.01,350.89,240819,,,A*62
$GPVTG,350.89,T,,M,0.01,N,0.01,K,A*3A
$GPGGA,060110.000,1254.6236,N,07737.8508,E,1,9,0.88,887.5,M,-88.5,M,,*7B
$GPGLL,1254.6236,N,07737.8508,E,060110.000,A,A*5D
$GPGSA,A,3,19,12,24,02,15,05,13,25,29,,,,1.62,0.88,1.36*03
$GPGSV,3,1,11,12,72,223,16,05,62,030,37,25,45,303,36,02,28,029,35*79
$GPGSV,3,2,11,193,28,058,17,13,25,134,39,15,25,176,33,29,18,328,32*42
$GPGSV,3,3,11,24,14,204,28,19,10,109,24,21,04,269,15*4F
$GPRMC,060110.000,A,1254.6236,N,07737.8508,E,0.01,259.50,240819,,,A*66
$GPVTG,259.50,T,,M,0.01,N,0.01,K,A*36
$GPGGA,060111.000,1254.6236,N,07737.8508,E,1,9,0.88,887.5,M,-88.5,M,,*7A
$GPGLL,1254.6236,N,07737.8508,E,060111.000,A,A*5C
$GPGSA,A,3,19,12,24,02,15,05,13,25,29,,,,1.62,0.88,1.36*03
$GPGSV,3,1,11,12,72,223,16,05,62,030,37,25,45,303,36,02,28,029,35*79
$GPGSV,3,2,11,193,28,058,17,13,25,134,39,15,25,176,33,29,18,328,32*42
$GPGSV,3,3,11,24,14,204,28,19,10,109,24,21,04,269,15*4F
$GPRMC,060111.000,A,1254.6236,N,07737.8508,E,0.01,123.78,240819,,,A*63
$GPVTG,123.78,T,,M,0.01,N,0.01,K,A*32
$GPGGA,060112.000,1254.6236,N,07737.8508,E,1,9,0.88,887.5,M,-88.5,M,,*79
$GPGLL,1254.6236,N,07737.8508,E,060112.000,A,A*5F
$GPGSA,A,3,19,12,24,02,15,05,13,25,29,,,,1.62,0.88,1.36*03
$GPGSV,3,1,11,12,72,223,16,05,62,030,37,25,45,303,36,02,28,029,35*79
$GPGSV,3,2,11,193,28,058,17,13,25,134,39,15,25,176,33,29,18,328,32*42
$GPGSV,3,3,11,24,14,204,28,19,10,109,25,21,04,269,15*4E
$GPRMC,060112.000,A,1254.6236,N,07737.8508,E,0.01,19.03,240819,,,A*54
$GPVTG,19.03,T,,M,0.01,N,0.02,K,A*05
$GPGGA,060113.000,1254.6236,N,07737.8508,E,1,9,0.88,887.5,M,-88.5,M,,*78
$GPGLL,1254.6236,N,07737.8508,E,060113.000,A,A*5E
$GPGSA,A,3,19,12,24,02,15,05,13,25,29,,,,1.62,0.88,1.36*03
$GPGSV,3,1,11,12,72,223,16,05,62,030,37,25,45,303,36,02,28,029,35*79
$GPGSV,3,2,11,193,28,058,17,13,25,134,40,15,25,176,33,29,18,328,32*4C
$GPGSV,3,3,11,24,14,204,28,19,10,109,25,21,04,270,16*45
$GPRMC,060113.000,A,1254.6236,N,07737.8508,E,0.01,16.15,240819,,,A*5D
$GPVTG,16.15,T,,M,0.01,N,0.01,K,A*0E
$GPGGA,060114.000,1254.6236,N,07737.8508,E,1,9,0.88,887.5,M,-88.5,M,,*7F
$GPGLL,1254.6236,N,07737.8508,E,060114.000,A,A*59
$GPGSA,A,3,19,12,24,02,15,05,13,25,29,,,,1.62,0.88,1.36*03
$GPGSV,3,1,11,12,72,223,16,05,62,030,37,25,45,303,36,02,28,029,35*79
$GPGSV,3,2,11,193,28,058,17,13,25,134,40,15,25,176,33,29,18,328,32*4C
$GPGSV,3,3,11,24,14,204,28,19,10,109,25,21,04,270,16*45
$GPRMC,060114.000,A,1254.6236,N,07737.8508,E,0.01,101.43,240819,,,A*6E
$GPVTG,101.43,T,,M,0.01,N,0.02,K,A*39
$GPGGA,060115.000,1254.6236,N,07737.8508,E,1,9,0.88,887.5,M,-88.5,M,,*7E
$GPGLL,1254.6236,N,07737.8508,E,060115.000,A,A*58
$GPGSA,A,3,19,12,24,02,15,05,13,25,29,,,,1.62,0.88,1.36*03
$GPGSV,3,1,11,12,72,223,16,05,62,030,37,25,45,303,36,02,28,029,35*79
$GPGSV,3,2,11,193,28,058,17,13,25,134,40,15,25,176,32,29,18,328,32*4D
$GPGSV,3,3,11,24,14,204,28,19,10,109,25,21,04,270,16*45
$GPRMC,060115.000,A,1254.6236,N,07737.8508,E,0.00,205.62,240819,,,A*6A
$GPVTG,205.62,T,,M,0.00,N,0.00,K,A*3E
$GPGGA,060116.000,1254.6236,N,07737.8508,E,1,9,0.88,887.5,M,-88.5,M,,*7D
$GPGLL,1254.6236,N,07737.8508,E,060116.000,A,A*5B
$GPGSA,A,3,19,12,24,02,15,05,13,25,29,,,,1.62,0.88,1.36*03
$GPGSV,3,1,11,12,72,223,16,05,62,030,37,25,45,303,36,02,28,029,35*79
$GPGSV,3,2,11,193,28,058,16,13,25,134,40,15,25,176,32,29,18,328,32*4C
$GPGSV,3,3,11,24,14,204,27,19,10,109,25,21,04,270,16*4A
$GPRMC,060116.000,A,1254.6236,N,07737.8508,E,0.01,347.33,240819,,,A*6B
$GPVTG,347.33,T,,M,0.01,N,0.02,K,A*3E
$GPGGA,060117.000,1254.6236,N,07737.8508,E,1,9,0.88,887.5,M,-88.5,M,,*7C
$GPGLL,1254.6236,N,07737.8508,E,060117.000,A,A*5A
$GPGSA,A,3,19,12,24,02,15,05,13,25,29,,,,1.62,0.88,1.36*03
$GPGSV,3,1,11,12,72,223,16,05,62,030,37,25,45,303,36,02,28,029,35*79
$GPGSV,3,2,11,193,28,058,16,13,25,134,40,15,25,176,32,29,18,328,33*4D
$GPGSV,3,3,11,24,14,204,26,19,10,109,25,21,04,270,16*4B
$GPRMC,060117.000,A,1254.6236,N,07737.8508,E,0.00,261.77,240819,,,A*6E
$GPVTG,261.77,T,,M,0.00,N,0.01,K,A*39
$GPGGA,060118.000,1254.6236,N,07737.8508,E,1,9,0.88,887.5,M,-88.5,M,,*73
$GPGLL,1254.6236,N,07737.8508,E,060118.000,A,A*55
$GPGSA,A,3,19,12,24,02,15,05,13,25,29,,,,1.62,0.88,1.36*03
$GPGSV,3,1,11,12,72,223,16,05,62,030,37,25,45,303,36,02,28,029,35*79
$GPGSV,3,2,11,193,28,058,16,13,25,134,40,15,25,176,32,29,18,328,33*4D
$GPGSV,3,3,11,24,14,204,26,19,10,109,24,21,04,270,15*49
$GPRMC,060118.000,A,1254.6236,N,07737.8508,E,0.01,357.54,240819,,,A*65
$GPVTG,357.54,T,,M,0.01,N,0.02,K,A*3E
$GPGGA,060119.000,1254.6236,N,07737.8508,E,1,9,0.88,887.5,M,-88.5,M,,*72
$GPGLL,1254.6236,N,07737.8508,E,060119.000,A,A*54
$GPGSA,A,3,19,12,24,02,15,05,13,25,29,,,,1.62,0.88,1.36*03
$GPGSV,3,1,11,12,72,223,16,05,62,030,37,25,45,303,36,02,28,029,35*79
$GPGSV,3,2,11,193,28,058,16,13,25,134,40,15,25,176,32,29,18,328,33*4D
$GPGSV,3,3,11,24,14,204,26,19,10,109,23,21,04,270,15*4E
$GPRMC,060119.000,A,1254.6236,N,07737.8508,E,0.01,88.22,240819,,,A*54
$GPVTG,88.22,T,,M,0.01,N,0.03,K,A*0F
$GPGGA,060120.000,1254.6236,N,07737.8508,E,1,9,0.88,887.5,M,-88.5,M,,*78
$GPGLL,1254.6236,N,07737.8508,E,060120.000,A,A*5E
$GPGSA,A,3,19,12,24,02,15,05,13,25,29,,,,1.62,0.88,1.36*03
$GPGSV,3,1,11,12,72,223,15,05,62,030,37,25,45,303,36,02,28,029,35*7A
$GPGSV,3,2,11,193,28,058,16,13,25,134,40,15,25,176,32,29,18,328,33*4D
$GPGSV,3,3,11,24,14,204,26,19,10,109,22,21,04,270,15*4F
$GPRMC,060120.000,A,1254.6236,N,07737.8508,E,0.01,250.06,240819,,,A*6F
$GPVTG,250.06,T,,M,0.01,N,0.01,K,A*3C
$GPGGA,060121.000,1254.6236,N,07737.8508,E,1,9,0.88,887.5,M,-88.5,M,,*79
$GPGLL,1254.6236,N,07737.8508,E,060121.000,A,A*5F
$GPGSA,A,3,19,12,24,02,15,05,13,25,29,,,,1.62,0.88,1.36*03
$GPGSV,3,1,11,12,72,223,15,05,62,030,37,25,45,303,36,02,28,029,35*7A
$GPGSV,3,2,11,193,28,058,16,13,25,134,40,15,25,176,32,29,18,329,33*4C
$GPGSV,3,3,11,24,14,204,26,19,10,109,22,21,04,270,15*4F
$GPRMC,060121.000,A,1254.6236,N,07737.8508,E,0.00,297.18,240819,,,A*6B
$GPVTG,297.18,T,,M,0.00,N,0.01,K,A*39
$GPGGA,060122.000,1254.6236,N,07737.8508,E,1,9,0.88,887.5,M,-88.5,M,,*7A
$GPGLL,1254.6236,N,07737.8508,E,060122.000,A,A*5C
$GPGSA,A,3,19,12,24,02,15,05,13,25,29,,,,1.62,0.88,1.36*03
$GPGSV,3,1,11,12,72,223,14,05,62,030,37,25,45,303,36,02,28,029,35*7B
$GPGSV,3,2,11,193,28,058,16,13,25,134,40,15,25,176,32,29,18,329,33*4C
$GPGSV,3,3,11,24,14,204,25,19,10,109,22,21,04,270,15*4C
$GPRMC,060122.000,A,1254.6236,N,07737.8508,E,0.00,263.25,240819,,,A*6D
$GPVTG,263.25,T,,M,0.00,N,0.01,K,A*3C
$GPGGA,060123.000,1254.6236,N,07737.8508,E,1,9,0.88,887.5,M,-88.5,M,,*7B
$GPGLL,1254.6236,N,07737.8508,E,060123.000,A,A*5D
$GPGSA,A,3,19,12,24,02,15,05,13,25,29,,,,1.62,0.88,1.36*03
$GPGSV,3,1,11,12,72,223,15,05,62,030,37,25,45,303,36,02,28,029,35*7A
$GPGSV,3,2,11,193,28,058,16,13,25,134,41,15,25,176,32,29,18,329,33*4D
$GPGSV,3,3,11,24,14,204,25,19,10,109,22,21,04,270,15*4C
$GPRMC,060123.000,A,1254.6236,N,07737.8508,E,0.00,48.01,240819,,,A*51
$GPVTG,48.01,T,,M,0.00,N,0.01,K,A*01
$GPGGA,060124.000,1254.6236,N,07737.8508,E,1,9,0.88,887.5,M,-88.5,M,,*7C
$GPGLL,1254.6236,N,07737.8508,E,060124.000,A,A*5A
$GPGSA,A,3,19,12,24,02,15,05,13,25,29,,,,1.62,0.88,1.36*03
$GPGSV,3,1,11,12,72,223,12,05,62,030,37,25,45,303,36,02,28,029,35*7D
$GPGSV,3,2,11,193,28,058,15,13,25,134,41,15,25,176,32,29,18,329,33*4E
$GPGSV,3,3,11,24,14,204,24,19,10,109,21,21,04,270,15*4E
$GPRMC,060124.000,A,1254.6236,N,07737.8508,E,0.01,43.40,240819,,,A*59
$GPVTG,43.40,T,,M,0.01,N,0.03,K,A*0C
$GPGGA,060125.000,1254.6236,N,07737.8508,E,1,9,0.88,887.5,M,-88.5,M,,*7D
$GPGLL,1254.6236,N,07737.8508,E,060125.000,A,A*5B
$GPGSA,A,3,19,12,24,02,15,05,13,25,29,,,,1.62,0.88,1.36*03
$GPGSV,3,1,11,12,72,223,15,05,62,030,37,25,45,303,36,02,28,029,35*7A
$GPGSV,3,2,11,193,28,058,15,13,25,134,41,15,25,176,32,29,18,329,33*4E
$GPGSV,3,3,11,24,14,204,23,19,10,109,21,21,04,270,16*4A
$GPRMC,060125.000,A,1254.6236,N,07737.8508,E,0.01,210.44,240819,,,A*68
$GPVTG,210.44,T,,M,0.01,N,0.01,K,A*3E
$GPGGA,060126.000,1254.6236,N,07737.8508,E,1,9,0.88,887.5,M,-88.5,M,,*7E
$GPGLL,1254.6236,N,07737.8508,E,060126.000,A,A*58
$GPGSA,A,3,19,12,24,02,15,05,13,25,29,,,,1.62,0.88,1.36*03
$GPGSV,3,1,11,12,72,223,15,05,62,030,37,25,45,303,36,02,28,029,35*7A
$GPGSV,3,2,11,193,28,058,15,13,25,134,41,15,25,176,32,29,18,329,33*4E
$GPGSV,3,3,11,24,14,204,23,19,10,109,22,21,04,270,16*49
$GPRMC,060126.000,A,1254.6236,N,07737.8508,E,0.01,358.64,240819,,,A*64
$GPVTG,358.64,T,,M,0.01,N,0.01,K,A*31
$GPGGA,060127.000,1254.6236,N,07737.8508,E,1,9,0.88,887.5,M,-88.5,M,,*7F
$GPGLL,1254.6236,N,07737.8508,E,060127.000,A,A*59
$GPGSA,A,3,19,12,24,02,15,05,13,25,29,,,,1.62,0.88,1.36*03
$GPGSV,3,1,11,12,72,223,14,05,62,030,37,25,45,303,36,02,28,029,35*7B
$GPGSV,3,2,11,193,28,058,16,13,25,134,41,15,25,176,32,29,18,329,34*4A
$GPGSV,3,3,11,24,14,204,22,19,10,109,22,21,04,270,16*48
$GPRMC,060127.000,A,1254.6236,N,07737.8508,E,0.01,50.10,240819,,,A*5D
$GPVTG,50.10,T,,M,0.01,N,0.01,K,A*09
$GPGGA,060128.000,1254.6236,N,07737.8508,E,1,9,0.88,887.5,M,-88.5,M,,*70
$GPGLL,1254.6236,N,07737.8508,E,060128.000,A,A*56
$GPGSA,A,3,19,12,24,02,15,05,13,25,29,,,,1.62,0.88,1.36*03
$GPGSV,3,1,11,12,72,223,15,05,62,030,37,25,45,303,36,02,28,029,35*7A
$GPGSV,3,2,11,193,28,058,16,13,25,134,41,15,25,176,32,29,18,329,34*4A
$GPGSV,3,3,11,24,14,204,21,19,10,109,23,21,04,270,16*4A
$GPRMC,060128.000,A,1254.6236,N,07737.8508,E,0.00,49.36,240819,,,A*5F
$GPVTG,49.36,T,,M,0.00,N,0.00,K,A*05
$GPGGA,060129.000,1254.6236,N,07737.8508,E,1,9,0.88,887.5,M,-88.5,M,,*71
$GPGLL,1254.6236,N,07737.8508,E,060129.000,A,A*57
$GPGSA,A,3,19,12,24,02,15,05,13,25,29,,,,1.62,0.88,1.36*03
$GPGSV,3,1,11,12,72,223,15,05,62,030,37,25,45,303,36,02,28,029,35*7A
$GPGSV,3,2,11,193,28,058,17,13,25,134,41,15,25,176,32,29,18,329,34*4B
$GPGSV,3,3,11,24,14,204,20,19,10,109,23,21,04,270,16*4B
$GPRMC,060129.000,A,1254.6236,N,07737.8508,E,0.00,254.78,240819,,,A*6A
$GPVTG,254.78,T,,M,0.00,N,0.01,K,A*30
$GPGGA,060130.000,1254.6236,N,07737.8508,E,1,9,0.88,887.5,M,-88.5,M,,*79
$GPGLL,1254.6236,N,07737.8508,E,060130.000,A,A*5F
$GPGSA,A,3,19,12,24,02,15,05,13,25,29,,,,1.62,0.88,1.36*03
$GPGSV,3,1,11,12,72,223,17,05,62,030,37,25,45,303,36,02,28,029,35*78
$GPGSV,3,2,11,193,28,058,17,13,25,134,41,15,25,176,32,29,18,329,34*4B
$GPGSV,3,3,11,24,14,204,19,19,10,109,23,21,04,270,16*41
$GPRMC,060130.000,A,1254.6236,N,07737.8508,E,0.01,32.98,240819,,,A*5F
$GPVTG,32.98,T,,M,0.01,N,0.02,K,A*0E
$GPGGA,060131.000,1254.6236,N,07737.8508,E,1,9,0.88,887.5,M,-88.5,M,,*78
$GPGLL,1254.6236,N,07737.8508,E,060131.000,A,A*5E
$GPGSA,A,3,19,12,24,02,15,05,13,25,29,,,,1.62,0.88,1.36*03
$GPGSV,3,1,11,12,72,223,18,05,62,030,37,25,45,303,36,02,28,029,35*77
$GPGSV,3,2,11,193,28,058,17,13,25,134,41,15,25,176,32,29,18,329,34*4B
$GPGSV,3,3,11,24,14,204,18,19,10,109,23,21,04,270,16*40
$GPRMC,060131.000,A,1254.6236,N,07737.8508,E,0.01,226.97,240819,,,A*66
$GPVTG,226.97,T,,M,0.01,N,0.02,K,A*36
$GPGGA,060132.000,1254.6236,N,07737.8508,E,1,9,0.88,887.5,M,-88.5,M,,*7B
$GPGLL,1254.6236,N,07737.8508,E,060132.000,A,A*5D
$GPGSA,A,3,19,12,24,02,15,05,13,25,29,,,,1.63,0.88,1.37*03
$GPGSV,3,1,11,12,72,223,18,05,62,030,37,25,45,303,36,02,28,029,35*77
$GPGSV,3,2,11,193,28,058,17,13,25,134,41,15,25,176,32,29,18,329,34*4B
$GPGSV,3,3,11,24,14,204,17,19,10,109,23,21,04,270,16*4F
$GPRMC,060132.000,A,1254.6236,N,07737.8508,E,0.01,284.37,240819,,,A*67
$GPVTG,284.37,T,,M,0.01,N,0.01,K,A*37
$GPGGA,060133.000,1254.6236,N,07737.8508,E,1,9,0.88,887.5,M,-88.5,M,,*7A
$GPGLL,1254.6236,N,07737.8508,E,060133.000,A,A*5C
$GPGSA,A,3,19,12,24,02,15,05,13,25,29,,,,1.62,0.88,1.36*03
$GPGSV,3,1,11,12,72,223,18,05,62,030,37,25,45,303,36,02,28,029,35*77
$GPGSV,3,2,11,193,28,058,17,13,25,134,41,15,25,176,32,29,18,329,34*4B
$GPGSV,3,3,11,24,14,204,17,19,10,109,23,21,04,270,16*4F
$GPRMC,060133.000,A,1254.6236,N,07737.8508,E,0.01,89.83,240819,,,A*56
$GPVTG,89.83,T,,M,0.01,N,0.01,K,A*07
$GPGGA,060134.000,1254.6236,N,07737.8508,E,1,9,0.88,887.5,M,-88.5,M,,*7D
$GPGLL,1254.6236,N,07737.8508,E,060134.000,A,A*5B
$GPGSA,A,3,19,12,24,02,15,05,13,25,29,,,,1.62,0.88,1.37*02
$GPGSV,3,1,11,12,72,223,17,05,62,030,37,25,45,303,36,02,28,029,35*78
$GPGSV,3,2,11,193,28,058,17,13,25,134,41,15,25,176,32,29,18,329,34*4B
$GPGSV,3,3,11,24,14,204,17,19,10,109,23,21,04,270,16*4F
$GPRMC,060134.000,A,1254.6236,N,07737.8508,E,0.01,354.61,240819,,,A*6E
$GPVTG,354.61,T,,M,0.01,N,0.02,K,A*3B
$GPGGA,060135.000,1254.6236,N,07737.8508,E,1,9,0.88,887.5,M,-88.5,M,,*7C
$GPGLL,1254.6236,N,07737.8508,E,060135.000,A,A*5A
$GPGSA,A,3,19,12,24,02,15,05,13,25,29,,,,1.62,0.88,1.36*03
$GPGSV,3,1,11,12,72,223,17,05,62,030,37,25,45,303,36,02,28,029,35*78
$GPGSV,3,2,11,193,28,058,17,13,25,134,41,15,25,176,32,29,18,329,34*4B
$GPGSV,3,3,11,24,14,204,17,19,10,109,24,21,04,270,16*48
$GPRMC,060135.000,A,1254.6236,N,07737.8508,E,0.00,186.36,240819,,,A*61
$GPVTG,186.36,T,,M,0.00,N,0.00,K,A*37
$GPGGA,060136.000,1254.6236,N,07737.8508,E,1,9,0.88,887.5,M,-88.5,M,,*7F
$GPGLL,1254.6236,N,07737.8508,E,060136.000,A,A*59
$GPGSA,A,3,19,12,24,02,15,05,13,25,29,,,,1.62,0.88,1.36*03
$GPGSV,3,1,11,12,72,223,17,05,62,030,37,25,45,303,36,02,28,029,35*78
$GPGSV,3,2,11,193,28,058,17,13,25,134,41,15,25,176,32,29,18,329,34*4B
$GPGSV,3,3,11,24,14,204,17,19,10,109,24,21,04,270,16*48
$GPRMC,060136.000,A,1254.6236,N,07737.8508,E,0.02,252.53,240819,,,A*69
$GPVTG,252.53,T,,M,0.02,N,0.03,K,A*3F
$GPGGA,060137.000,1254.6236,N,07737.8508,E,1,9,0.88,887.5,M,-88.5,M,,*7E
$GPGLL,1254.6236,N,07737.8508,E,060137.000,A,A*58
$GPGSA,A,3,19,12,24,02,15,05,13,25,29,,,,1.62,0.88,1.36*03
$GPGSV,3,1,11,12,72,223,17,05,62,030,37,25,45,303,36,02,28,029,35*78
$GPGSV,3,2,11,193,28,058,17,13,25,134,41,15,25,176,32,29,18,329,34*4B
$GPGSV,3,3,11,24,14,204,17,19,10,109,24,21,04,270,16*48
$GPRMC,060137.000,A,1254.6236,N,07737.8508,E,0.03,77.54,240819,,,A*5B
$GPVTG,77.54,T,,M,0.03,N,0.05,K,A*0A
$GPGGA,060138.000,1254.6236,N,07737.8508,E,1,9,0.88,887.5,M,-88.5,M,,*71
$GPGLL,1254.6236,N,07737.8508,E,060138.000,A,A*57
$GPGSA,A,3,19,12,24,02,15,05,13,25,29,,,,1.63,0.88,1.37*03
$GPGSV,3,1,11,12,72,223,18,05,62,030,37,25,45,303,36,02,28,029,35*77
$GPGSV,3,2,11,193,28,058,17,13,25,134,41,15,25,176,32,29,18,329,34*4B
$GPGSV,3,3,11,24,14,204,17,19,10,109,24,21,04,270,16*48
$GPRMC,060138.000,A,1254.6236,N,07737.8508,E,0.01,245.90,240819,,,A*6D
$GPVTG,245.90,T,,M,0.01,N,0.02,K,A*34
$GPGGA,060139.000,1254.6236,N,07737.8508,E,1,9,0.88,887.5,M,-88.5,M,,*70
$GPGLL,1254.6236,N,07737.8508,E,060139.000,A,A*56
$GPGSA,A,3,19,12,24,02,15,05,13,25,29,,,,1.63,0.88,1.37*03
$GPGSV,3,1,11,12,72,222,18,05,62,030,37,25,45,303,36,02,28,029,35*76
$GPGSV,3,2,11,193,28,058,17,13,25,134,41,15,25,176,32,29,18,329,34*4B
$GPGSV,3,3,11,24,14,204,17,19,10,109,25,21,04,270,15*4A
$GPRMC,060139.000,A,1254.6236,N,07737.8508,E,0.01,241.08,240819,,,A*69
$GPVTG,241.08,T,,M,0.01,N,0.01,K,A*32
$GPGGA,060140.000,1254.6236,N,07737.8508,E,1,9,0.88,887.5,M,-88.5,M,,*7E
$GPGLL,1254.6236,N,07737.8508,E,060140.000,A,A*58
$GPGSA,A,3,19,12,24,02,15,05,13,25,29,,,,1.62,0.88,1.36*03
$GPGSV,3,1,11,12,72,222,18,05,62,030,37,25,45,303,36,02,28,029,35*76
$GPGSV,3,2,11,193,28,058,17,13,25,133,41,15,25,176,32,29,18,329,34*4C
$GPGSV,3,3,11,24,14,204,17,19,10,109,25,21,04,270,15*4A
$GPRMC,060140.000,A,1254.6236,N,07737.8508,E,0.01,232.64,240819,,,A*69
$GPVTG,232.64,T,,M,0.01,N,0.02,K,A*3F
$GPGGA,060141.000,1254.6236,N,07737.8508,E,1,9,0.88,887.5,M,-88.5,M,,*7F
$GPGLL,1254.6236,N,07737.8508,E,060141.000,A,A*59
$GPGSA,A,3,19,12,24,02,15,05,13,25,29,,,,1.63,0.88,1.37*03
$GPGSV,3,1,11,12,72,222,18,05,62,030,37,25,45,303,36,02,28,029,35*76
$GPGSV,3,2,11,193,28,058,17,13,25,133,41,15,25,176,32,29,18,329,34*4C
$GPGSV,3,3,11,24,14,204,18,19,10,109,25,21,04,270,15*45
